{
"RECORDS":[
{
"FAMILY_ID":"100000094769714",
"HOUSEHOLDERNAME":"侯有社",
"COUNT":4,
"INCOME":"3031.50",
"POORLAT":34.2338188404596,
"POORLON":108.242433353838
},
{
"FAMILY_ID":"100000097183159",
"HOUSEHOLDERNAME":"宋小镇",
"COUNT":1,
"INCOME":"4418.40",
"POORLAT":34.7892186597163,
"POORLON":108.136617028679
},
{
"FAMILY_ID":"100000098434352",
"HOUSEHOLDERNAME":"王长顺",
"COUNT":4,
"INCOME":"2979.25",
"POORLAT":34.2497823798814,
"POORLON":108.243426181685
},
{
"FAMILY_ID":"100000098692095",
"HOUSEHOLDERNAME":"康笼笼",
"COUNT":2,
"INCOME":"4048.50",
"POORLAT":34.3987900588608,
"POORLON":108.05140040741
},
{
"FAMILY_ID":"100000098829302",
"HOUSEHOLDERNAME":"刘平武",
"COUNT":4,
"INCOME":"2979.00",
"POORLAT":34.284805,
"POORLON":108.26657
},
{
"FAMILY_ID":"100000098877288",
"HOUSEHOLDERNAME":"孙多云",
"COUNT":3,
"INCOME":"4798.89",
"POORLAT":34.304905,
"POORLON":108.197815
},
{
"FAMILY_ID":"100000099138234",
"HOUSEHOLDERNAME":"何汉兴",
"COUNT":2,
"INCOME":"1388.50",
"POORLAT":34.4984004633832,
"POORLON":108.128499496724
},
{
"FAMILY_ID":"100000099192242",
"HOUSEHOLDERNAME":"宋俊娃",
"COUNT":2,
"INCOME":"177.00",
"POORLAT":34.4977134622725,
"POORLON":108.23809746803
},
{
"FAMILY_ID":"100000099367079",
"HOUSEHOLDERNAME":"张纪忠",
"COUNT":2,
"INCOME":"3547.50",
"POORLAT":34.2330587797622,
"POORLON":108.242343325884
},
{
"FAMILY_ID":"100000099418936",
"HOUSEHOLDERNAME":"杜军",
"COUNT":2,
"INCOME":"4905.00",
"POORLAT":34.236006738261,
"POORLON":108.241686030573
},
{
"FAMILY_ID":"100000099572505",
"HOUSEHOLDERNAME":"徐库厂",
"COUNT":5,
"INCOME":"4954.92",
"POORLAT":34.342552,
"POORLON":108.19566
},
{
"FAMILY_ID":"100000099684039",
"HOUSEHOLDERNAME":"王建军",
"COUNT":5,
"INCOME":"2785.60",
"POORLAT":34.5108558845511,
"POORLON":108.123031118733
},
{
"FAMILY_ID":"100000099707005",
"HOUSEHOLDERNAME":"伊团利",
"COUNT":3,
"INCOME":"4850.00",
"POORLAT":34.316807,
"POORLON":108.20652
},
{
"FAMILY_ID":"100000099716869",
"HOUSEHOLDERNAME":"刘光娄",
"COUNT":1,
"INCOME":"4224.50",
"POORLAT":34.5080804109573,
"POORLON":108.244196128845
},
{
"FAMILY_ID":"100000099762679",
"HOUSEHOLDERNAME":"王海利",
"COUNT":3,
"INCOME":"2452.00",
"POORLAT":34.4009675878525,
"POORLON":108.051801493454
},
{
"FAMILY_ID":"100000099794792",
"HOUSEHOLDERNAME":"张会歌",
"COUNT":4,
"INCOME":"2339.50",
"POORLAT":34.284805,
"POORLON":108.26657
},
{
"FAMILY_ID":"100000099803464",
"HOUSEHOLDERNAME":"刘开芳",
"COUNT":6,
"INCOME":"4403.05",
"POORLAT":34.239317635582,
"POORLON":108.21319
},
{
"FAMILY_ID":"100000099837315",
"HOUSEHOLDERNAME":"董科成",
"COUNT":4,
"INCOME":"3758.50",
"POORLAT":34.4059542589924,
"POORLON":108.056444440864
},
{
"FAMILY_ID":"100000099882155",
"HOUSEHOLDERNAME":"赵天阳",
"COUNT":2,
"INCOME":"3030.00",
"POORLAT":34.22363,
"POORLON":108.2627
},
{
"FAMILY_ID":"100000099955966",
"HOUSEHOLDERNAME":"赵党党",
"COUNT":4,
"INCOME":"3991.50",
"POORLAT":34.22363,
"POORLON":108.2627
},
{
"FAMILY_ID":"100000099966866",
"HOUSEHOLDERNAME":"朱普歌",
"COUNT":12,
"INCOME":"2052.33",
"POORLAT":34.284805,
"POORLON":108.26657
},
{
"FAMILY_ID":"100000100149178",
"HOUSEHOLDERNAME":"张创军",
"COUNT":6,
"INCOME":"2850.00",
"POORLAT":34.284954,
"POORLON":108.273384
},
{
"FAMILY_ID":"100000100298926",
"HOUSEHOLDERNAME":"杜芳歌",
"COUNT":3,
"INCOME":"2900.33",
"POORLAT":34.315867,
"POORLON":108.224629
},
{
"FAMILY_ID":"100000100333796",
"HOUSEHOLDERNAME":"高中太",
"COUNT":3,
"INCOME":"4399.00",
"POORLAT":34.8009121955163,
"POORLON":108.195163982392
},
{
"FAMILY_ID":"100000100359029",
"HOUSEHOLDERNAME":"高成基",
"COUNT":6,
"INCOME":"604.33",
"POORLAT":34.5002531494176,
"POORLON":108.124490944649
},
{
"FAMILY_ID":"100000100359820",
"HOUSEHOLDERNAME":"张创社",
"COUNT":4,
"INCOME":"2979.00",
"POORLAT":null,
"POORLON":null
},
{
"FAMILY_ID":"100000100397898",
"HOUSEHOLDERNAME":"张耀荣",
"COUNT":8,
"INCOME":"2989.60",
"POORLAT":null,
"POORLON":null
},
{
"FAMILY_ID":"100000100449093",
"HOUSEHOLDERNAME":"刘犬儿",
"COUNT":3,
"INCOME":"3624.33",
"POORLAT":34.799832715685,
"POORLON":108.194484440982
},
{
"FAMILY_ID":"100000100454206",
"HOUSEHOLDERNAME":"宋树娃",
"COUNT":3,
"INCOME":"2245.33",
"POORLAT":null,
"POORLON":null
},
{
"FAMILY_ID":"100000100555010",
"HOUSEHOLDERNAME":"刘云芳",
"COUNT":9,
"INCOME":"3601.50",
"POORLAT":34.5169404745102,
"POORLON":108.265715122223
},
{
"FAMILY_ID":"100000100561370",
"HOUSEHOLDERNAME":"孙高峰",
"COUNT":3,
"INCOME":"3673.00",
"POORLAT":34.4171088166501,
"POORLON":108.033876776616
},
{
"FAMILY_ID":"100000100614995",
"HOUSEHOLDERNAME":"张响响",
"COUNT":4,
"INCOME":"3846.18",
"POORLAT":34.5110679830448,
"POORLON":108.115655569346
},
{
"FAMILY_ID":"100000100658188",
"HOUSEHOLDERNAME":"牛小科",
"COUNT":3,
"INCOME":"3225.67",
"POORLAT":34.370246887207,
"POORLON":108.05542755127
},
{
"FAMILY_ID":"100000100666019",
"HOUSEHOLDERNAME":"张小院",
"COUNT":6,
"INCOME":"2527.07",
"POORLAT":null,
"POORLON":null
},
{
"FAMILY_ID":"100000100676606",
"HOUSEHOLDERNAME":"高保卫",
"COUNT":3,
"INCOME":"4600.00",
"POORLAT":34.8006209817816,
"POORLON":108.1965035783
},
{
"FAMILY_ID":"100000100702278",
"HOUSEHOLDERNAME":"牛崇浩",
"COUNT":3,
"INCOME":"2545.67",
"POORLAT":34.370002746582,
"POORLON":108.053245544434
},
{
"FAMILY_ID":"100000100703053",
"HOUSEHOLDERNAME":"罗西牛",
"COUNT":3,
"INCOME":"3996.33",
"POORLAT":34.7994144884092,
"POORLON":108.194800710463
},
{
"FAMILY_ID":"100000100772550",
"HOUSEHOLDERNAME":"桂尚荣",
"COUNT":3,
"INCOME":"1705.67",
"POORLAT":34.3673820495605,
"POORLON":108.054626464844
},
{
"FAMILY_ID":"100000101997370",
"HOUSEHOLDERNAME":"韩小刚",
"COUNT":6,
"INCOME":"2953.23",
"POORLAT":null,
"POORLON":null
},
{
"FAMILY_ID":"100000102222731",
"HOUSEHOLDERNAME":"杨井明",
"COUNT":6,
"INCOME":"3621.67",
"POORLAT":34.49351,
"POORLON":108.1216
},
{
"FAMILY_ID":"100000102266450",
"HOUSEHOLDERNAME":"邢金学",
"COUNT":5,
"INCOME":"3340.00",
"POORLAT":34.4937031798775,
"POORLON":108.167581347758
},
{
"FAMILY_ID":"100000102375191",
"HOUSEHOLDERNAME":"李卫卫",
"COUNT":5,
"INCOME":"4791.80",
"POORLAT":34.4652675390244,
"POORLON":108.16083574295
},
{
"FAMILY_ID":"100000102509145",
"HOUSEHOLDERNAME":"郭彦岐",
"COUNT":4,
"INCOME":"1450.80",
"POORLAT":34.4576969146729,
"POORLON":108.152888655663
},
{
"FAMILY_ID":"100000102597343",
"HOUSEHOLDERNAME":"何云",
"COUNT":12,
"INCOME":"568.50",
"POORLAT":34.4991168884584,
"POORLON":108.129221296973
},
{
"FAMILY_ID":"100000102799265",
"HOUSEHOLDERNAME":"胡齐齐",
"COUNT":1,
"INCOME":"2959.00",
"POORLAT":null,
"POORLON":null
},
{
"FAMILY_ID":"100000102851331",
"HOUSEHOLDERNAME":"王智涛",
"COUNT":6,
"INCOME":"2834.00",
"POORLAT":34.48245,
"POORLON":108.13845
},
{
"FAMILY_ID":"100000102933421",
"HOUSEHOLDERNAME":"裴俊忠",
"COUNT":8,
"INCOME":"3002.50",
"POORLAT":34.5321235656738,
"POORLON":108.214454650879
},
{
"FAMILY_ID":"100000102950285",
"HOUSEHOLDERNAME":"张建会",
"COUNT":6,
"INCOME":"2775.22",
"POORLAT":34.29981,
"POORLON":108.293274
},
{
"FAMILY_ID":"100000102997278",
"HOUSEHOLDERNAME":"李桂芹",
"COUNT":1,
"INCOME":"4759.00",
"POORLAT":34.508633,
"POORLON":108.164604
},
{
"FAMILY_ID":"100000103130242",
"HOUSEHOLDERNAME":"张振库",
"COUNT":6,
"INCOME":"2893.33",
"POORLAT":34.286255,
"POORLON":108.27136
},
{
"FAMILY_ID":"100000103194733",
"HOUSEHOLDERNAME":"侯小刚",
"COUNT":5,
"INCOME":"2986.10",
"POORLAT":null,
"POORLON":null
},
{
"FAMILY_ID":"100000103214964",
"HOUSEHOLDERNAME":"张普会",
"COUNT":4,
"INCOME":"2947.95",
"POORLAT":null,
"POORLON":null
},
{
"FAMILY_ID":"100000103260996",
"HOUSEHOLDERNAME":"张开社",
"COUNT":4,
"INCOME":"2970.00",
"POORLAT":34.2835,
"POORLON":108.276566
},
{
"FAMILY_ID":"100000103309448",
"HOUSEHOLDERNAME":"郑斌选",
"COUNT":6,
"INCOME":"3002.03",
"POORLAT":34.501205,
"POORLON":108.15743
},
{
"FAMILY_ID":"100000103322652",
"HOUSEHOLDERNAME":"张伟伟",
"COUNT":10,
"INCOME":"3007.20",
"POORLAT":null,
"POORLON":null
},
{
"FAMILY_ID":"100000103353465",
"HOUSEHOLDERNAME":"王会玲",
"COUNT":6,
"INCOME":"3716.67",
"POORLAT":34.49297,
"POORLON":108.12163
},
{
"FAMILY_ID":"100000103388519",
"HOUSEHOLDERNAME":"韩顺田",
"COUNT":3,
"INCOME":"2993.00",
"POORLAT":null,
"POORLON":null
},
{
"FAMILY_ID":"100000103563176",
"HOUSEHOLDERNAME":"邓宏昌",
"COUNT":9,
"INCOME":"4004.33",
"POORLAT":34.5036138296127,
"POORLON":108.147390365601
},
{
"FAMILY_ID":"100000103563655",
"HOUSEHOLDERNAME":"赵中学",
"COUNT":2,
"INCOME":"2665.00",
"POORLAT":34.595284,
"POORLON":108.59828
},
{
"FAMILY_ID":"100000103759141",
"HOUSEHOLDERNAME":"刘满升",
"COUNT":15,
"INCOME":"3899.00",
"POORLAT":34.295704,
"POORLON":108.293365
},
{
"FAMILY_ID":"100000103934126",
"HOUSEHOLDERNAME":"张元望",
"COUNT":4,
"INCOME":"2920.00",
"POORLAT":34.28485,
"POORLON":108.27245
},
{
"FAMILY_ID":"100000104002662",
"HOUSEHOLDERNAME":"苏云贵",
"COUNT":4,
"INCOME":"3967.85",
"POORLAT":null,
"POORLON":null
},
{
"FAMILY_ID":"100000104181453",
"HOUSEHOLDERNAME":"苏富俊",
"COUNT":12,
"INCOME":"1146.41",
"POORLAT":null,
"POORLON":null
},
{
"FAMILY_ID":"100000104309331",
"HOUSEHOLDERNAME":"邓尊社",
"COUNT":6,
"INCOME":"4065.00",
"POORLAT":34.5040923953056,
"POORLON":108.148184776306
},
{
"FAMILY_ID":"100000104377705",
"HOUSEHOLDERNAME":"王培峰",
"COUNT":6,
"INCOME":"4487.50",
"POORLAT":34.479633,
"POORLON":108.14566
},
{
"FAMILY_ID":"100000104467129",
"HOUSEHOLDERNAME":"王斌娃",
"COUNT":8,
"INCOME":"2966.75",
"POORLAT":34.5110991183772,
"POORLON":108.124864478253
},
{
"FAMILY_ID":"100000104471610",
"HOUSEHOLDERNAME":"陈淑琴",
"COUNT":2,
"INCOME":"3910.85",
"POORLAT":34.491943,
"POORLON":108.12108
},
{
"FAMILY_ID":"100000104511617",
"HOUSEHOLDERNAME":"樊菊侠",
"COUNT":4,
"INCOME":"4958.15",
"POORLAT":34.5569261588823,
"POORLON":108.835648786353
},
{
"FAMILY_ID":"100000104518597",
"HOUSEHOLDERNAME":"王安民",
"COUNT":1,
"INCOME":"2940.00",
"POORLAT":null,
"POORLON":null
},
{
"FAMILY_ID":"100000104532039",
"HOUSEHOLDERNAME":"刘雪琴",
"COUNT":6,
"INCOME":"3053.00",
"POORLAT":34.5006521344185,
"POORLON":108.144879281521
},
{
"FAMILY_ID":"100000104561157",
"HOUSEHOLDERNAME":"侯永康",
"COUNT":5,
"INCOME":"2968.00",
"POORLAT":34.27744,
"POORLON":108.291275
},
{
"FAMILY_ID":"100000104583071",
"HOUSEHOLDERNAME":"魏立新",
"COUNT":2,
"INCOME":"2249.00",
"POORLAT":34.574390356775,
"POORLON":108.895832351016
},
{
"FAMILY_ID":"100000104642736",
"HOUSEHOLDERNAME":"杨军地",
"COUNT":2,
"INCOME":"2982.75",
"POORLAT":34.5057037853174,
"POORLON":108.118160131664
},
{
"FAMILY_ID":"100000104647511",
"HOUSEHOLDERNAME":"李俊杰",
"COUNT":2,
"INCOME":"1589.00",
"POORLAT":34.4666401147842,
"POORLON":108.161309123039
},
{
"FAMILY_ID":"100000104661683",
"HOUSEHOLDERNAME":"杨俊岐",
"COUNT":9,
"INCOME":"2833.67",
"POORLAT":34.484474,
"POORLON":108.14454
},
{
"FAMILY_ID":"100000104688233",
"HOUSEHOLDERNAME":"李俊武",
"COUNT":3,
"INCOME":"3728.67",
"POORLAT":34.4665048122406,
"POORLON":108.165353775024
},
{
"FAMILY_ID":"100000104691012",
"HOUSEHOLDERNAME":"赵建会",
"COUNT":8,
"INCOME":"3001.00",
"POORLAT":34.281307,
"POORLON":108.28867
},
{
"FAMILY_ID":"100000104723657",
"HOUSEHOLDERNAME":"王春会",
"COUNT":4,
"INCOME":"3437.05",
"POORLAT":null,
"POORLON":null
},
{
"FAMILY_ID":"100000104729494",
"HOUSEHOLDERNAME":"尹倩倩",
"COUNT":3,
"INCOME":"4551.30",
"POORLAT":null,
"POORLON":null
},
{
"FAMILY_ID":"100000104739293",
"HOUSEHOLDERNAME":"田秀歌",
"COUNT":2,
"INCOME":"3748.50",
"POORLAT":34.29725,
"POORLON":108.29005
},
{
"FAMILY_ID":"100000104743196",
"HOUSEHOLDERNAME":"谭霞霞",
"COUNT":6,
"INCOME":"3381.67",
"POORLAT":34.477604,
"POORLON":108.14319
},
{
"FAMILY_ID":"100000104786910",
"HOUSEHOLDERNAME":"尹朱昌",
"COUNT":8,
"INCOME":"3684.00",
"POORLAT":34.27117,
"POORLON":108.28611
},
{
"FAMILY_ID":"100000104788617",
"HOUSEHOLDERNAME":"丁建国",
"COUNT":6,
"INCOME":"1163.33",
"POORLAT":34.28099,
"POORLON":108.28237
},
{
"FAMILY_ID":"100000104828283",
"HOUSEHOLDERNAME":"杨俊峰",
"COUNT":4,
"INCOME":"2298.75",
"POORLAT":34.4913551069959,
"POORLON":108.122310523094
},
{
"FAMILY_ID":"100000104925216",
"HOUSEHOLDERNAME":"杨群羊",
"COUNT":10,
"INCOME":"4967.20",
"POORLAT":null,
"POORLON":null
},
{
"FAMILY_ID":"100000104953454",
"HOUSEHOLDERNAME":"杨拉社",
"COUNT":12,
"INCOME":"2979.83",
"POORLAT":34.496773,
"POORLON":108.11453
},
{
"FAMILY_ID":"100000104960055",
"HOUSEHOLDERNAME":"王斌社",
"COUNT":14,
"INCOME":"1841.00",
"POORLAT":null,
"POORLON":null
},
{
"FAMILY_ID":"100000104994565",
"HOUSEHOLDERNAME":"刘月芹",
"COUNT":2,
"INCOME":"1349.00",
"POORLAT":34.4774742126465,
"POORLON":108.224884033203
},
{
"FAMILY_ID":"100000105071499",
"HOUSEHOLDERNAME":"丁卫国",
"COUNT":4,
"INCOME":"2950.00",
"POORLAT":34.281,
"POORLON":108.28226
},
{
"FAMILY_ID":"100000105074184",
"HOUSEHOLDERNAME":"王建华",
"COUNT":10,
"INCOME":"2822.40",
"POORLAT":34.5107146717243,
"POORLON":108.114034043433
},
{
"FAMILY_ID":"100000105117622",
"HOUSEHOLDERNAME":"郭康卫",
"COUNT":5,
"INCOME":"3021.18",
"POORLAT":34.4587265253067,
"POORLON":108.153199791908
},
{
"FAMILY_ID":"100000105128545",
"HOUSEHOLDERNAME":"甘志荣",
"COUNT":3,
"INCOME":"3195.00",
"POORLAT":34.5114975921116,
"POORLON":108.115005584555
},
{
"FAMILY_ID":"100000105132578",
"HOUSEHOLDERNAME":"丁风联",
"COUNT":4,
"INCOME":"2961.00",
"POORLAT":34.28106,
"POORLON":108.28195
},
{
"FAMILY_ID":"100000105133414",
"HOUSEHOLDERNAME":"王高选",
"COUNT":2,
"INCOME":"2294.00",
"POORLAT":34.2854,
"POORLON":108.28909
},
{
"FAMILY_ID":"100000105175412",
"HOUSEHOLDERNAME":"赵立勋",
"COUNT":4,
"INCOME":"3004.00",
"POORLAT":34.28085,
"POORLON":108.28125
},
{
"FAMILY_ID":"100000105240741",
"HOUSEHOLDERNAME":"朱耀忠",
"COUNT":5,
"INCOME":"2993.60",
"POORLAT":34.281994,
"POORLON":108.28119
},
{
"FAMILY_ID":"100000105261459",
"HOUSEHOLDERNAME":"邓尊毛",
"COUNT":5,
"INCOME":"4618.00",
"POORLAT":34.5024590492249,
"POORLON":108.148099660873
},
{
"FAMILY_ID":"100000105309729",
"HOUSEHOLDERNAME":"侯红旗",
"COUNT":10,
"INCOME":"2435.20",
"POORLAT":34.27744,
"POORLON":108.291275
},
{
"FAMILY_ID":"100000105376719",
"HOUSEHOLDERNAME":"侯鹏举",
"COUNT":3,
"INCOME":"2766.67",
"POORLAT":34.27744,
"POORLON":108.291275
},
{
"FAMILY_ID":"100000105417181",
"HOUSEHOLDERNAME":"侯争德",
"COUNT":6,
"INCOME":"4925.67",
"POORLAT":34.272602,
"POORLON":108.29994
},
{
"FAMILY_ID":"100000105438550",
"HOUSEHOLDERNAME":"吴军战",
"COUNT":4,
"INCOME":"4535.98",
"POORLAT":34.49556,
"POORLON":108.10457
},
{
"FAMILY_ID":"100000105462870",
"HOUSEHOLDERNAME":"周广太",
"COUNT":6,
"INCOME":"4251.00",
"POORLAT":34.5354042053223,
"POORLON":108.138240456581
},
{
"FAMILY_ID":"100000105495939",
"HOUSEHOLDERNAME":"张小红",
"COUNT":3,
"INCOME":"4800.00",
"POORLAT":34.483,
"POORLON":108.14679
},
{
"FAMILY_ID":"100000105524023",
"HOUSEHOLDERNAME":"周小保",
"COUNT":2,
"INCOME":"4410.00",
"POORLAT":null,
"POORLON":null
},
{
"FAMILY_ID":"100000105573833",
"HOUSEHOLDERNAME":"卢富亭",
"COUNT":9,
"INCOME":"4889.00",
"POORLAT":null,
"POORLON":null
},
{
"FAMILY_ID":"100000105579939",
"HOUSEHOLDERNAME":"王秀英",
"COUNT":2,
"INCOME":"2650.40",
"POORLAT":34.5114510511219,
"POORLON":108.124579901263
},
{
"FAMILY_ID":"100000105611521",
"HOUSEHOLDERNAME":"马阿党",
"COUNT":4,
"INCOME":"3018.50",
"POORLAT":34.3013,
"POORLON":108.28195
},
{
"FAMILY_ID":"100000105616165",
"HOUSEHOLDERNAME":"王俊松",
"COUNT":9,
"INCOME":"4706.00",
"POORLAT":34.480766,
"POORLON":108.146095
},
{
"FAMILY_ID":"100000105624521",
"HOUSEHOLDERNAME":"侯泥平",
"COUNT":2,
"INCOME":"2842.20",
"POORLAT":34.4781588315964,
"POORLON":108.17032456398
},
{
"FAMILY_ID":"100000105626851",
"HOUSEHOLDERNAME":"葛国",
"COUNT":6,
"INCOME":"3431.67",
"POORLAT":34.2992941091232,
"POORLON":108.266265296326
},
{
"FAMILY_ID":"100000105636389",
"HOUSEHOLDERNAME":"刘升会",
"COUNT":2,
"INCOME":"3459.00",
"POORLAT":34.301353,
"POORLON":108.28504
},
{
"FAMILY_ID":"100000105672022",
"HOUSEHOLDERNAME":"葛争争",
"COUNT":4,
"INCOME":"4719.00",
"POORLAT":34.297077,
"POORLON":108.26761
},
{
"FAMILY_ID":"100000105697103",
"HOUSEHOLDERNAME":"刘建辉",
"COUNT":8,
"INCOME":"4956.32",
"POORLAT":34.27105,
"POORLON":108.28465
},
{
"FAMILY_ID":"100000105700281",
"HOUSEHOLDERNAME":"李平平",
"COUNT":3,
"INCOME":"2618.00",
"POORLAT":34.4777870178223,
"POORLON":108.167709350586
},
{
"FAMILY_ID":"100000105703181",
"HOUSEHOLDERNAME":"王胜利",
"COUNT":6,
"INCOME":"2959.00",
"POORLAT":34.482468,
"POORLON":108.1418
},
{
"FAMILY_ID":"100000105724184",
"HOUSEHOLDERNAME":"刘中义",
"COUNT":12,
"INCOME":"3012.00",
"POORLAT":34.5239692926407,
"POORLON":108.147047400475
},
{
"FAMILY_ID":"100000105736254",
"HOUSEHOLDERNAME":"葛经涛",
"COUNT":12,
"INCOME":"3929.00",
"POORLAT":34.299796162674,
"POORLON":108.262357949104
},
{
"FAMILY_ID":"100000105761748",
"HOUSEHOLDERNAME":"张正选",
"COUNT":8,
"INCOME":"4143.25",
"POORLAT":34.579118974205,
"POORLON":108.23065953373
},
{
"FAMILY_ID":"100000105774938",
"HOUSEHOLDERNAME":"张宏彦",
"COUNT":6,
"INCOME":"4145.67",
"POORLAT":34.5113088436541,
"POORLON":108.259339509356
},
{
"FAMILY_ID":"100000105840927",
"HOUSEHOLDERNAME":"王党峰",
"COUNT":10,
"INCOME":"2834.00",
"POORLAT":34.48246,
"POORLON":108.13835
},
{
"FAMILY_ID":"100000105884678",
"HOUSEHOLDERNAME":"宋勤果",
"COUNT":2,
"INCOME":"3039.90",
"POORLAT":34.4826,
"POORLON":108.14262
},
{
"FAMILY_ID":"100000105895357",
"HOUSEHOLDERNAME":"侯志德",
"COUNT":3,
"INCOME":"2831.67",
"POORLAT":34.5108666086396,
"POORLON":108.124141161346
},
{
"FAMILY_ID":"100000105899250",
"HOUSEHOLDERNAME":"芷天平",
"COUNT":9,
"INCOME":"2859.00",
"POORLAT":34.63905,
"POORLON":108.8088
},
{
"FAMILY_ID":"100000105920279",
"HOUSEHOLDERNAME":"吴宏亮",
"COUNT":2,
"INCOME":"4500.00",
"POORLAT":34.578533,
"POORLON":108.23835
},
{
"FAMILY_ID":"100000105971411",
"HOUSEHOLDERNAME":"师创民",
"COUNT":6,
"INCOME":"4427.20",
"POORLAT":34.5118677055675,
"POORLON":108.25810027922
},
{
"FAMILY_ID":"100000106041222",
"HOUSEHOLDERNAME":"韩春玲",
"COUNT":4,
"INCOME":"4115.00",
"POORLAT":34.5984640025363,
"POORLON":108.665682140536
},
{
"FAMILY_ID":"100000106051659",
"HOUSEHOLDERNAME":"张兵",
"COUNT":6,
"INCOME":"4175.80",
"POORLAT":34.569904,
"POORLON":108.232124
},
{
"FAMILY_ID":"100000106079473",
"HOUSEHOLDERNAME":"殷文玉",
"COUNT":4,
"INCOME":"4318.00",
"POORLAT":34.567104,
"POORLON":108.23336
},
{
"FAMILY_ID":"100000106093515",
"HOUSEHOLDERNAME":"王公社",
"COUNT":6,
"INCOME":"3012.00",
"POORLAT":34.48167,
"POORLON":108.14454
},
{
"FAMILY_ID":"100000106136874",
"HOUSEHOLDERNAME":"侯兵社",
"COUNT":2,
"INCOME":"2500.00",
"POORLAT":34.4733649492264,
"POORLON":108.157036542892
},
{
"FAMILY_ID":"100000106157969",
"HOUSEHOLDERNAME":"卢生明",
"COUNT":6,
"INCOME":"4206.42",
"POORLAT":34.5159492492676,
"POORLON":108.128456115723
},
{
"FAMILY_ID":"100000106173937",
"HOUSEHOLDERNAME":"段秀花",
"COUNT":2,
"INCOME":"4759.15",
"POORLAT":34.52105,
"POORLON":108.26041
},
{
"FAMILY_ID":"100000106207964",
"HOUSEHOLDERNAME":"王小孟",
"COUNT":6,
"INCOME":"2839.33",
"POORLAT":34.4776027919909,
"POORLON":108.144086590698
},
{
"FAMILY_ID":"100000106225913",
"HOUSEHOLDERNAME":"袁应奇",
"COUNT":9,
"INCOME":"4472.00",
"POORLAT":34.62345,
"POORLON":108.81225
},
{
"FAMILY_ID":"100000106229426",
"HOUSEHOLDERNAME":"冯会琴",
"COUNT":4,
"INCOME":"4031.50",
"POORLAT":null,
"POORLON":null
},
{
"FAMILY_ID":"100000106231271",
"HOUSEHOLDERNAME":"卢亚兰",
"COUNT":6,
"INCOME":"4880.57",
"POORLAT":34.4793406969242,
"POORLON":108.143621135431
},
{
"FAMILY_ID":"100000106232219",
"HOUSEHOLDERNAME":"王亚茹",
"COUNT":3,
"INCOME":"3246.00",
"POORLAT":34.5210095643997,
"POORLON":108.258824944496
},
{
"FAMILY_ID":"100000106234626",
"HOUSEHOLDERNAME":"王全省",
"COUNT":1,
"INCOME":"4490.00",
"POORLAT":34.4982358813286,
"POORLON":108.145987868309
},
{
"FAMILY_ID":"100000106256268",
"HOUSEHOLDERNAME":"王宇峰",
"COUNT":8,
"INCOME":"2924.00",
"POORLAT":34.4794092091588,
"POORLON":108.144739131697
},
{
"FAMILY_ID":"100000106294866",
"HOUSEHOLDERNAME":"甘永匣",
"COUNT":4,
"INCOME":"2927.00",
"POORLAT":34.4774170660424,
"POORLON":108.143168049228
},
{
"FAMILY_ID":"100000106303880",
"HOUSEHOLDERNAME":"周金礼",
"COUNT":6,
"INCOME":"3012.00",
"POORLAT":34.5133290085983,
"POORLON":108.140489271164
},
{
"FAMILY_ID":"100000106313353",
"HOUSEHOLDERNAME":"王四孟",
"COUNT":12,
"INCOME":"1277.00",
"POORLAT":34.480198,
"POORLON":108.14321
},
{
"FAMILY_ID":"100000106315935",
"HOUSEHOLDERNAME":"魏兵战",
"COUNT":2,
"INCOME":"4308.50",
"POORLAT":null,
"POORLON":null
},
{
"FAMILY_ID":"100000106329145",
"HOUSEHOLDERNAME":"姚尊社",
"COUNT":6,
"INCOME":"2870.80",
"POORLAT":34.5047338008881,
"POORLON":108.143887996674
},
{
"FAMILY_ID":"100000106331820",
"HOUSEHOLDERNAME":"罗培芳",
"COUNT":1,
"INCOME":"3778.00",
"POORLAT":null,
"POORLON":null
},
{
"FAMILY_ID":"100000106350635",
"HOUSEHOLDERNAME":"王秀芳",
"COUNT":8,
"INCOME":"3758.77",
"POORLAT":34.4728813171387,
"POORLON":108.160774230957
},
{
"FAMILY_ID":"100000106359894",
"HOUSEHOLDERNAME":"王景岐",
"COUNT":20,
"INCOME":"3411.00",
"POORLAT":34.482,
"POORLON":108.14439
},
{
"FAMILY_ID":"100000106369154",
"HOUSEHOLDERNAME":"杨秀梅",
"COUNT":1,
"INCOME":"3659.00",
"POORLAT":34.527187,
"POORLON":108.24099
},
{
"FAMILY_ID":"100000106433164",
"HOUSEHOLDERNAME":"袁养民",
"COUNT":3,
"INCOME":"2684.00",
"POORLAT":34.51245,
"POORLON":108.21985
},
{
"FAMILY_ID":"100000106435225",
"HOUSEHOLDERNAME":"王建刚",
"COUNT":8,
"INCOME":"2928.92",
"POORLAT":34.48285,
"POORLON":108.14485
},
{
"FAMILY_ID":"100000106435581",
"HOUSEHOLDERNAME":"马耀刚",
"COUNT":4,
"INCOME":"3036.70",
"POORLAT":34.54427,
"POORLON":108.23805
},
{
"FAMILY_ID":"100000106465294",
"HOUSEHOLDERNAME":"冯永利",
"COUNT":6,
"INCOME":"2609.50",
"POORLAT":34.5659468128586,
"POORLON":108.216777433205
},
{
"FAMILY_ID":"100000106468133",
"HOUSEHOLDERNAME":"唐利利",
"COUNT":4,
"INCOME":"4468.00",
"POORLAT":34.4792137145996,
"POORLON":108.20531463623
},
{
"FAMILY_ID":"100000106472813",
"HOUSEHOLDERNAME":"张玉梅",
"COUNT":6,
"INCOME":"2206.67",
"POORLAT":34.52622,
"POORLON":108.23105
},
{
"FAMILY_ID":"100000106479641",
"HOUSEHOLDERNAME":"王德田",
"COUNT":2,
"INCOME":"4484.00",
"POORLAT":34.5060076322937,
"POORLON":108.144160049629
},
{
"FAMILY_ID":"100000106488321",
"HOUSEHOLDERNAME":"徐新怀",
"COUNT":2,
"INCOME":"4387.20",
"POORLAT":null,
"POORLON":null
},
{
"FAMILY_ID":"100000106497641",
"HOUSEHOLDERNAME":"杨科",
"COUNT":4,
"INCOME":"2718.00",
"POORLAT":34.4796104431152,
"POORLON":108.20777130127
},
{
"FAMILY_ID":"100000106503641",
"HOUSEHOLDERNAME":"王济亭",
"COUNT":3,
"INCOME":"3592.67",
"POORLAT":34.4780128002167,
"POORLON":108.218349933624
},
{
"FAMILY_ID":"100000106675824",
"HOUSEHOLDERNAME":"张秋侠",
"COUNT":2,
"INCOME":"4203.98",
"POORLAT":34.692047,
"POORLON":108.665474
},
{
"FAMILY_ID":"100000106687307",
"HOUSEHOLDERNAME":"王志章",
"COUNT":2,
"INCOME":"1561.50",
"POORLAT":null,
"POORLON":null
},
{
"FAMILY_ID":"100000106716387",
"HOUSEHOLDERNAME":"葛彦奇",
"COUNT":6,
"INCOME":"4926.67",
"POORLAT":34.299793,
"POORLON":108.26236
},
{
"FAMILY_ID":"100000106733635",
"HOUSEHOLDERNAME":"宋小茹",
"COUNT":1,
"INCOME":"2400.00",
"POORLAT":34.5208509325409,
"POORLON":108.25905
},
{
"FAMILY_ID":"100000106777932",
"HOUSEHOLDERNAME":"梁成成",
"COUNT":6,
"INCOME":"2925.33",
"POORLAT":34.294357,
"POORLON":108.24179
},
{
"FAMILY_ID":"100000106842288",
"HOUSEHOLDERNAME":"赵俊林",
"COUNT":1,
"INCOME":"4040.00",
"POORLAT":34.223625,
"POORLON":108.2627
},
{
"FAMILY_ID":"100000106851490",
"HOUSEHOLDERNAME":"刘静新",
"COUNT":3,
"INCOME":"4126.00",
"POORLAT":null,
"POORLON":null
},
{
"FAMILY_ID":"100000106856396",
"HOUSEHOLDERNAME":"彭仁合",
"COUNT":10,
"INCOME":"4489.40",
"POORLAT":34.6001107885432,
"POORLON":108.665309525896
},
{
"FAMILY_ID":"100000106874046",
"HOUSEHOLDERNAME":"葛志峰",
"COUNT":7,
"INCOME":"4034.93",
"POORLAT":34.293747,
"POORLON":108.24143
},
{
"FAMILY_ID":"100000106922291",
"HOUSEHOLDERNAME":"王生新",
"COUNT":4,
"INCOME":"2430.00",
"POORLAT":34.2189,
"POORLON":108.25542
},
{
"FAMILY_ID":"100000106955733",
"HOUSEHOLDERNAME":"张建永",
"COUNT":1,
"INCOME":"2423.00",
"POORLAT":34.4148119823393,
"POORLON":108.035373841331
},
{
"FAMILY_ID":"100000106987864",
"HOUSEHOLDERNAME":"宋武杰",
"COUNT":8,
"INCOME":"3534.56",
"POORLAT":34.499496,
"POORLON":108.26232
},
{
"FAMILY_ID":"100000107024758",
"HOUSEHOLDERNAME":"吴夫贵",
"COUNT":2,
"INCOME":"3267.60",
"POORLAT":34.5622577266946,
"POORLON":108.924612704405
},
{
"FAMILY_ID":"100000107027283",
"HOUSEHOLDERNAME":"王井国",
"COUNT":6,
"INCOME":"4122.83",
"POORLAT":34.22363,
"POORLON":108.2627
},
{
"FAMILY_ID":"100000107077914",
"HOUSEHOLDERNAME":"丁永波",
"COUNT":5,
"INCOME":"4171.40",
"POORLAT":34.4126951826231,
"POORLON":108.03842910085
},
{
"FAMILY_ID":"100000107097765",
"HOUSEHOLDERNAME":"归小练",
"COUNT":4,
"INCOME":"3357.26",
"POORLAT":null,
"POORLON":null
},
{
"FAMILY_ID":"100000107102082",
"HOUSEHOLDERNAME":"韩芳绒",
"COUNT":4,
"INCOME":"3656.13",
"POORLAT":34.244453,
"POORLON":108.13611
},
{
"FAMILY_ID":"100000107116707",
"HOUSEHOLDERNAME":"何霞",
"COUNT":4,
"INCOME":"2743.72",
"POORLAT":34.5763384668647,
"POORLON":108.905869397052
},
{
"FAMILY_ID":"100000107153904",
"HOUSEHOLDERNAME":"苏志昌",
"COUNT":3,
"INCOME":"2969.17",
"POORLAT":34.354176,
"POORLON":108.030785
},
{
"FAMILY_ID":"100000107185872",
"HOUSEHOLDERNAME":"田淑芳",
"COUNT":2,
"INCOME":"3685.20",
"POORLAT":34.36136,
"POORLON":108.03583
},
{
"FAMILY_ID":"100000107226311",
"HOUSEHOLDERNAME":"李朋朋",
"COUNT":10,
"INCOME":"3306.80",
"POORLAT":null,
"POORLON":null
},
{
"FAMILY_ID":"100000107227038",
"HOUSEHOLDERNAME":"王智勇",
"COUNT":4,
"INCOME":"4098.70",
"POORLAT":34.243420941971,
"POORLON":108.241517257151
},
{
"FAMILY_ID":"100000107229195",
"HOUSEHOLDERNAME":"归军辉",
"COUNT":8,
"INCOME":"2947.00",
"POORLAT":34.471314288038,
"POORLON":108.124130694582
},
{
"FAMILY_ID":"100000107234807",
"HOUSEHOLDERNAME":"怡长泉",
"COUNT":15,
"INCOME":"2939.60",
"POORLAT":34.566917,
"POORLON":108.83829
},
{
"FAMILY_ID":"100000107242413",
"HOUSEHOLDERNAME":"王林周",
"COUNT":6,
"INCOME":"4108.46",
"POORLAT":34.240618338623,
"POORLON":108.229798076057
},
{
"FAMILY_ID":"100000107270444",
"HOUSEHOLDERNAME":"田淑侠",
"COUNT":2,
"INCOME":"2088.75",
"POORLAT":34.4778833985329,
"POORLON":108.220355927944
},
{
"FAMILY_ID":"100000107288615",
"HOUSEHOLDERNAME":"刘北锁",
"COUNT":3,
"INCOME":"4721.67",
"POORLAT":34.4187216735485,
"POORLON":108.031872443433
},
{
"FAMILY_ID":"100000107288977",
"HOUSEHOLDERNAME":"冯远新",
"COUNT":8,
"INCOME":"4338.75",
"POORLAT":34.5523261740133,
"POORLON":108.210132225306
},
{
"FAMILY_ID":"100000107317118",
"HOUSEHOLDERNAME":"归养民",
"COUNT":4,
"INCOME":"3037.00",
"POORLAT":34.4725236943024,
"POORLON":108.124385711644
},
{
"FAMILY_ID":"100000107320399",
"HOUSEHOLDERNAME":"任保军",
"COUNT":8,
"INCOME":"1019.25",
"POORLAT":34.70325,
"POORLON":108.70285
},
{
"FAMILY_ID":"100000107324658",
"HOUSEHOLDERNAME":"赵密省",
"COUNT":1,
"INCOME":"4627.00",
"POORLAT":34.223625,
"POORLON":108.2627
},
{
"FAMILY_ID":"100000107386339",
"HOUSEHOLDERNAME":"王焕娃",
"COUNT":12,
"INCOME":"3916.17",
"POORLAT":34.7029266357422,
"POORLON":108.701126098633
},
{
"FAMILY_ID":"100000107418734",
"HOUSEHOLDERNAME":"康桂洲",
"COUNT":6,
"INCOME":"4782.40",
"POORLAT":34.5558495516153,
"POORLON":108.93049755488
},
{
"FAMILY_ID":"100000107438526",
"HOUSEHOLDERNAME":"安万民",
"COUNT":6,
"INCOME":"4622.40",
"POORLAT":34.568367,
"POORLON":108.90871
},
{
"FAMILY_ID":"100000107453851",
"HOUSEHOLDERNAME":"张升明",
"COUNT":2,
"INCOME":"4448.50",
"POORLAT":34.4147135074574,
"POORLON":108.034185692475
},
{
"FAMILY_ID":"100000107477471",
"HOUSEHOLDERNAME":"董忠海",
"COUNT":12,
"INCOME":"2387.87",
"POORLAT":34.5539211825682,
"POORLON":108.926733525096
},
{
"FAMILY_ID":"100000107506403",
"HOUSEHOLDERNAME":"许创领",
"COUNT":4,
"INCOME":"2838.50",
"POORLAT":34.244717,
"POORLON":108.1329
},
{
"FAMILY_ID":"100000107523969",
"HOUSEHOLDERNAME":"刘引会",
"COUNT":12,
"INCOME":"4964.07",
"POORLAT":34.2964,
"POORLON":108.29204
},
{
"FAMILY_ID":"100000107524458",
"HOUSEHOLDERNAME":"赵军社",
"COUNT":5,
"INCOME":"4076.94",
"POORLAT":34.54437,
"POORLON":108.456245
},
{
"FAMILY_ID":"100000107529924",
"HOUSEHOLDERNAME":"范芝琴",
"COUNT":15,
"INCOME":"3357.40",
"POORLAT":34.4730008613792,
"POORLON":108.123417321692
},
{
"FAMILY_ID":"100000107544576",
"HOUSEHOLDERNAME":"张敏顺",
"COUNT":2,
"INCOME":"3350.00",
"POORLAT":34.7911069592001,
"POORLON":108.162256685288
},
{
"FAMILY_ID":"100000107556879",
"HOUSEHOLDERNAME":"张志锋",
"COUNT":4,
"INCOME":"3905.00",
"POORLAT":34.545208,
"POORLON":108.456635
},
{
"FAMILY_ID":"100000107564420",
"HOUSEHOLDERNAME":"李小侠",
"COUNT":4,
"INCOME":"2970.00",
"POORLAT":34.7901983422506,
"POORLON":108.162446341389
},
{
"FAMILY_ID":"100000107669940",
"HOUSEHOLDERNAME":"朱绸子",
"COUNT":2,
"INCOME":"1463.20",
"POORLAT":null,
"POORLON":null
},
{
"FAMILY_ID":"100000107781379",
"HOUSEHOLDERNAME":"程桃英",
"COUNT":4,
"INCOME":"3742.20",
"POORLAT":34.296852,
"POORLON":108.29219
},
{
"FAMILY_ID":"100000107787135",
"HOUSEHOLDERNAME":"许建卫",
"COUNT":5,
"INCOME":"4505.78",
"POORLAT":34.310715,
"POORLON":108.243004
},
{
"FAMILY_ID":"100000107861451",
"HOUSEHOLDERNAME":"王勤兰",
"COUNT":6,
"INCOME":"4804.15",
"POORLAT":34.31986,
"POORLON":108.233215
},
{
"FAMILY_ID":"100000107882173",
"HOUSEHOLDERNAME":"吴永发",
"COUNT":8,
"INCOME":"2726.38",
"POORLAT":34.295853,
"POORLON":108.289566
},
{
"FAMILY_ID":"100000107882342",
"HOUSEHOLDERNAME":"王秀芳",
"COUNT":2,
"INCOME":"4766.00",
"POORLAT":34.226364,
"POORLON":108.26955
},
{
"FAMILY_ID":"100000107923755",
"HOUSEHOLDERNAME":"罗俊勇",
"COUNT":3,
"INCOME":"3581.00",
"POORLAT":34.4304130250549,
"POORLON":108.0481072052
},
{
"FAMILY_ID":"100000107928730",
"HOUSEHOLDERNAME":"孟满国",
"COUNT":8,
"INCOME":"4581.88",
"POORLAT":34.29673,
"POORLON":108.29018
},
{
"FAMILY_ID":"100000107967020",
"HOUSEHOLDERNAME":"梁少康",
"COUNT":2,
"INCOME":"1903.20",
"POORLAT":34.382442,
"POORLON":108.05
},
{
"FAMILY_ID":"100000107975207",
"HOUSEHOLDERNAME":"鲁思梦",
"COUNT":2,
"INCOME":"4749.65",
"POORLAT":34.365429085011,
"POORLON":108.228501376768
},
{
"FAMILY_ID":"100000108044562",
"HOUSEHOLDERNAME":"张靖国",
"COUNT":1,
"INCOME":"3820.83",
"POORLAT":34.6651988506317,
"POORLON":108.975334119797
},
{
"FAMILY_ID":"100000108106013",
"HOUSEHOLDERNAME":"王战成",
"COUNT":1,
"INCOME":"3480.00",
"POORLAT":34.24498,
"POORLON":108.238434
},
{
"FAMILY_ID":"100000108114923",
"HOUSEHOLDERNAME":"杨富君",
"COUNT":5,
"INCOME":"2464.30",
"POORLAT":34.28736,
"POORLON":108.292496
},
{
"FAMILY_ID":"100000108176269",
"HOUSEHOLDERNAME":"梁国英",
"COUNT":10,
"INCOME":"4112.80",
"POORLAT":null,
"POORLON":null
},
{
"FAMILY_ID":"100000108185122",
"HOUSEHOLDERNAME":"董平贯",
"COUNT":1,
"INCOME":"3940.57",
"POORLAT":34.55642,
"POORLON":108.49768
},
{
"FAMILY_ID":"100000108189602",
"HOUSEHOLDERNAME":"史宝军",
"COUNT":2,
"INCOME":"4079.00",
"POORLAT":34.28736,
"POORLON":108.292496
},
{
"FAMILY_ID":"100000108190583",
"HOUSEHOLDERNAME":"田麦顿",
"COUNT":2,
"INCOME":"3128.92",
"POORLAT":34.21825,
"POORLON":108.27665
},
{
"FAMILY_ID":"100000108211697",
"HOUSEHOLDERNAME":"赵孝懿",
"COUNT":4,
"INCOME":"3926.50",
"POORLAT":34.22363,
"POORLON":108.2627
},
{
"FAMILY_ID":"100000108223160",
"HOUSEHOLDERNAME":"徐昌昌",
"COUNT":1,
"INCOME":"3483.90",
"POORLAT":34.4357184344864,
"POORLON":108.044330654907
},
{
"FAMILY_ID":"100000108235074",
"HOUSEHOLDERNAME":"王宗义",
"COUNT":9,
"INCOME":"4553.60",
"POORLAT":null,
"POORLON":null
},
{
"FAMILY_ID":"100000108369312",
"HOUSEHOLDERNAME":"张眼望",
"COUNT":16,
"INCOME":"4086.10",
"POORLAT":34.295776,
"POORLON":108.29116
},
{
"FAMILY_ID":"100000108419572",
"HOUSEHOLDERNAME":"李海洋",
"COUNT":10,
"INCOME":"4217.20",
"POORLAT":34.7855312076611,
"POORLON":108.160411758594
},
{
"FAMILY_ID":"100000108425704",
"HOUSEHOLDERNAME":"樊东升",
"COUNT":6,
"INCOME":"4080.00",
"POORLAT":34.6350050129873,
"POORLON":108.804675333897
},
{
"FAMILY_ID":"100000108429765",
"HOUSEHOLDERNAME":"吴难看",
"COUNT":4,
"INCOME":"2734.50",
"POORLAT":34.8083009111013,
"POORLON":108.187274143492
},
{
"FAMILY_ID":"100000108455976",
"HOUSEHOLDERNAME":"蒋立社",
"COUNT":3,
"INCOME":"3339.00",
"POORLAT":null,
"POORLON":null
},
{
"FAMILY_ID":"100000108466941",
"HOUSEHOLDERNAME":"刘串教",
"COUNT":4,
"INCOME":"4132.50",
"POORLAT":34.7994101975535,
"POORLON":108.193382765984
},
{
"FAMILY_ID":"100000108506958",
"HOUSEHOLDERNAME":"程书兰",
"COUNT":1,
"INCOME":"2948.00",
"POORLAT":34.8014960164636,
"POORLON":108.198053459282
},
{
"FAMILY_ID":"100000108523960",
"HOUSEHOLDERNAME":"卢景学",
"COUNT":3,
"INCOME":"4276.76",
"POORLAT":34.5538289890794,
"POORLON":108.417864382253
},
{
"FAMILY_ID":"100000108527748",
"HOUSEHOLDERNAME":"田继双",
"COUNT":12,
"INCOME":"1179.25",
"POORLAT":34.303043,
"POORLON":108.29365
},
{
"FAMILY_ID":"100000108539259",
"HOUSEHOLDERNAME":"颜占通",
"COUNT":1,
"INCOME":"2956.00",
"POORLAT":34.337868,
"POORLON":108.18825
},
{
"FAMILY_ID":"100000108570971",
"HOUSEHOLDERNAME":"李忠孝",
"COUNT":12,
"INCOME":"4461.39",
"POORLAT":34.5995436303733,
"POORLON":108.854059199016
},
{
"FAMILY_ID":"100000108618272",
"HOUSEHOLDERNAME":"卢爱户",
"COUNT":3,
"INCOME":"4737.92",
"POORLAT":34.55502,
"POORLON":108.41831
},
{
"FAMILY_ID":"100000108625123",
"HOUSEHOLDERNAME":"冉联库",
"COUNT":9,
"INCOME":"3093.00",
"POORLAT":34.368492,
"POORLON":108.33891
},
{
"FAMILY_ID":"100000108626089",
"HOUSEHOLDERNAME":"仝小峰",
"COUNT":6,
"INCOME":"1146.50",
"POORLAT":34.599006717375,
"POORLON":108.852816753188
},
{
"FAMILY_ID":"100000108653587",
"HOUSEHOLDERNAME":"赵养娃",
"COUNT":3,
"INCOME":"3391.70",
"POORLAT":34.37164,
"POORLON":108.31831
},
{
"FAMILY_ID":"100000108655585",
"HOUSEHOLDERNAME":"邓冠存",
"COUNT":1,
"INCOME":"4000.00",
"POORLAT":34.292583,
"POORLON":108.24205
},
{
"FAMILY_ID":"100000108673922",
"HOUSEHOLDERNAME":"闫有望",
"COUNT":3,
"INCOME":"2315.67",
"POORLAT":34.6681439161301,
"POORLON":108.982313227654
},
{
"FAMILY_ID":"100000108700143",
"HOUSEHOLDERNAME":"王民选",
"COUNT":2,
"INCOME":"4040.84",
"POORLAT":34.48402,
"POORLON":108.14472
},
{
"FAMILY_ID":"100000108706568",
"HOUSEHOLDERNAME":"杨群明",
"COUNT":6,
"INCOME":"1941.50",
"POORLAT":34.5994390801772,
"POORLON":108.854035438835
},
{
"FAMILY_ID":"100000108717306",
"HOUSEHOLDERNAME":"王金玉",
"COUNT":4,
"INCOME":"4409.25",
"POORLAT":34.251590275085,
"POORLON":108.239939345748
},
{
"FAMILY_ID":"100000108736936",
"HOUSEHOLDERNAME":"高俊平",
"COUNT":3,
"INCOME":"3760.00",
"POORLAT":34.8011845752824,
"POORLON":108.196996732116
},
{
"FAMILY_ID":"100000108741441",
"HOUSEHOLDERNAME":"陈新民",
"COUNT":6,
"INCOME":"2970.67",
"POORLAT":null,
"POORLON":null
},
{
"FAMILY_ID":"100000108753971",
"HOUSEHOLDERNAME":"胡秀英",
"COUNT":4,
"INCOME":"1691.50",
"POORLAT":34.37164,
"POORLON":108.31831
},
{
"FAMILY_ID":"100000108758356",
"HOUSEHOLDERNAME":"董向松",
"COUNT":2,
"INCOME":"4852.25",
"POORLAT":34.542843,
"POORLON":108.46345
},
{
"FAMILY_ID":"100000108777595",
"HOUSEHOLDERNAME":"黄玉明",
"COUNT":6,
"INCOME":"4144.00",
"POORLAT":34.3335903046738,
"POORLON":108.190626525478
},
{
"FAMILY_ID":"100000108803019",
"HOUSEHOLDERNAME":"王本印",
"COUNT":3,
"INCOME":"4979.30",
"POORLAT":34.541607,
"POORLON":108.44782
},
{
"FAMILY_ID":"100000108808792",
"HOUSEHOLDERNAME":"高强俊",
"COUNT":5,
"INCOME":"3165.20",
"POORLAT":34.6662105237079,
"POORLON":108.986202965336
},
{
"FAMILY_ID":"100000108814506",
"HOUSEHOLDERNAME":"侯社省",
"COUNT":4,
"INCOME":"4424.00",
"POORLAT":34.294357,
"POORLON":108.24179
},
{
"FAMILY_ID":"100000108820151",
"HOUSEHOLDERNAME":"王小堂",
"COUNT":4,
"INCOME":"3572.13",
"POORLAT":34.2431516554737,
"POORLON":108.241410212668
},
{
"FAMILY_ID":"100000108826458",
"HOUSEHOLDERNAME":"王建奎",
"COUNT":4,
"INCOME":"1666.00",
"POORLAT":null,
"POORLON":null
},
{
"FAMILY_ID":"100000108869022",
"HOUSEHOLDERNAME":"刘创社",
"COUNT":2,
"INCOME":"4216.50",
"POORLAT":null,
"POORLON":null
},
{
"FAMILY_ID":"100000108874758",
"HOUSEHOLDERNAME":"鲁会会",
"COUNT":2,
"INCOME":"3131.30",
"POORLAT":34.24205,
"POORLON":108.45125
},
{
"FAMILY_ID":"100000108879108",
"HOUSEHOLDERNAME":"张运动",
"COUNT":6,
"INCOME":"4956.67",
"POORLAT":34.8008797263645,
"POORLON":108.195305018309
},
{
"FAMILY_ID":"100000108893532",
"HOUSEHOLDERNAME":"谈文静",
"COUNT":8,
"INCOME":"2950.00",
"POORLAT":34.372807,
"POORLON":108.32091
},
{
"FAMILY_ID":"100000108896752",
"HOUSEHOLDERNAME":"王拴平",
"COUNT":4,
"INCOME":"4414.80",
"POORLAT":34.479057,
"POORLON":108.14618
},
{
"FAMILY_ID":"100000108905567",
"HOUSEHOLDERNAME":"马习勋",
"COUNT":1,
"INCOME":"2831.84",
"POORLAT":34.7653106843812,
"POORLON":108.432616479962
},
{
"FAMILY_ID":"100000108913702",
"HOUSEHOLDERNAME":"李关党",
"COUNT":1,
"INCOME":"4487.30",
"POORLAT":34.236249921781,
"POORLON":108.295156942096
},
{
"FAMILY_ID":"100000108937514",
"HOUSEHOLDERNAME":"高得顺",
"COUNT":3,
"INCOME":"4070.00",
"POORLAT":34.8011682608439,
"POORLON":108.198825001942
},
{
"FAMILY_ID":"100000108954006",
"HOUSEHOLDERNAME":"宏素珍",
"COUNT":1,
"INCOME":"4956.60",
"POORLAT":34.536816,
"POORLON":108.470695
},
{
"FAMILY_ID":"100000108965186",
"HOUSEHOLDERNAME":"赵喜同",
"COUNT":3,
"INCOME":"2600.00",
"POORLAT":34.37164,
"POORLON":108.31831
},
{
"FAMILY_ID":"100000108965491",
"HOUSEHOLDERNAME":"来引珍",
"COUNT":4,
"INCOME":"4626.00",
"POORLAT":34.7997772922832,
"POORLON":108.194499822445
},
{
"FAMILY_ID":"100000108967007",
"HOUSEHOLDERNAME":"张翠梅",
"COUNT":15,
"INCOME":"3945.12",
"POORLAT":34.5701998081222,
"POORLON":108.836528320151
},
{
"FAMILY_ID":"100000108983451",
"HOUSEHOLDERNAME":"武战潮",
"COUNT":1,
"INCOME":"3317.90",
"POORLAT":34.54838,
"POORLON":108.478806
},
{
"FAMILY_ID":"100000108999244",
"HOUSEHOLDERNAME":"卫秀琴",
"COUNT":4,
"INCOME":"4844.50",
"POORLAT":34.3692416485556,
"POORLON":108.329154178054
},
{
"FAMILY_ID":"100000109020913",
"HOUSEHOLDERNAME":"田兴厚",
"COUNT":6,
"INCOME":"3906.00",
"POORLAT":34.303795,
"POORLON":108.31437
},
{
"FAMILY_ID":"100000109038594",
"HOUSEHOLDERNAME":"李世才",
"COUNT":8,
"INCOME":"4965.00",
"POORLAT":34.7852112679459,
"POORLON":108.161016199032
},
{
"FAMILY_ID":"100000109044366",
"HOUSEHOLDERNAME":"文生敏",
"COUNT":4,
"INCOME":"3925.16",
"POORLAT":34.521976,
"POORLON":108.48121
},
{
"FAMILY_ID":"100000109053618",
"HOUSEHOLDERNAME":"何参兵",
"COUNT":2,
"INCOME":"4113.00",
"POORLAT":34.5791854858398,
"POORLON":108.204666137695
},
{
"FAMILY_ID":"100000109058718",
"HOUSEHOLDERNAME":"高磊",
"COUNT":1,
"INCOME":"2950.00",
"POORLAT":34.8011272126136,
"POORLON":108.196714284233
},
{
"FAMILY_ID":"100000109090109",
"HOUSEHOLDERNAME":"王小弟",
"COUNT":1,
"INCOME":"2788.86",
"POORLAT":34.5432846205026,
"POORLON":108.520120231595
},
{
"FAMILY_ID":"100000109094504",
"HOUSEHOLDERNAME":"刘思怡",
"COUNT":1,
"INCOME":"3530.00",
"POORLAT":34.8004594776096,
"POORLON":108.195587945521
},
{
"FAMILY_ID":"100000109097858",
"HOUSEHOLDERNAME":"葛松松",
"COUNT":2,
"INCOME":"2797.50",
"POORLAT":34.294357,
"POORLON":108.24179
},
{
"FAMILY_ID":"100000109105219",
"HOUSEHOLDERNAME":"卫俊明",
"COUNT":4,
"INCOME":"2575.00",
"POORLAT":34.372807,
"POORLON":108.32091
},
{
"FAMILY_ID":"100000109115242",
"HOUSEHOLDERNAME":"谷恒涛",
"COUNT":8,
"INCOME":"2601.50",
"POORLAT":34.249805,
"POORLON":108.294266
},
{
"FAMILY_ID":"100000109128811",
"HOUSEHOLDERNAME":"董秀英",
"COUNT":6,
"INCOME":"3127.67",
"POORLAT":34.373474,
"POORLON":108.32313
},
{
"FAMILY_ID":"100000109130356",
"HOUSEHOLDERNAME":"何显尼",
"COUNT":2,
"INCOME":"2798.50",
"POORLAT":34.303795,
"POORLON":108.31437
},
{
"FAMILY_ID":"100000109141648",
"HOUSEHOLDERNAME":"文红侠",
"COUNT":3,
"INCOME":"2928.80",
"POORLAT":34.523513841629,
"POORLON":108.456648540497
},
{
"FAMILY_ID":"100000109162631",
"HOUSEHOLDERNAME":"樊运动",
"COUNT":5,
"INCOME":"3353.34",
"POORLAT":34.7657374227584,
"POORLON":108.432384141497
},
{
"FAMILY_ID":"100000109164661",
"HOUSEHOLDERNAME":"董社教",
"COUNT":4,
"INCOME":"4832.35",
"POORLAT":34.7368457054487,
"POORLON":108.415196741286
},
{
"FAMILY_ID":"100000109171937",
"HOUSEHOLDERNAME":"南养权",
"COUNT":3,
"INCOME":"4386.60",
"POORLAT":34.368805,
"POORLON":108.340385
},
{
"FAMILY_ID":"100000109182147",
"HOUSEHOLDERNAME":"贾龙涛",
"COUNT":1,
"INCOME":"4496.33",
"POORLAT":34.5335104346275,
"POORLON":108.457570717484
},
{
"FAMILY_ID":"100000109296630",
"HOUSEHOLDERNAME":"董秀琴",
"COUNT":2,
"INCOME":"3727.50",
"POORLAT":34.356907,
"POORLON":108.032585
},
{
"FAMILY_ID":"100000109299588",
"HOUSEHOLDERNAME":"郑兴",
"COUNT":2,
"INCOME":"3650.63",
"POORLAT":34.5578582286835,
"POORLON":108.497564554214
},
{
"FAMILY_ID":"100000109309743",
"HOUSEHOLDERNAME":"张海涛",
"COUNT":6,
"INCOME":"4934.83",
"POORLAT":34.25779,
"POORLON":108.29771
},
{
"FAMILY_ID":"100000109319851",
"HOUSEHOLDERNAME":"张明会",
"COUNT":3,
"INCOME":"2946.20",
"POORLAT":null,
"POORLON":null
},
{
"FAMILY_ID":"100000109347726",
"HOUSEHOLDERNAME":"周跃兵",
"COUNT":4,
"INCOME":"3258.03",
"POORLAT":34.544277,
"POORLON":108.466805
},
{
"FAMILY_ID":"100000109370271",
"HOUSEHOLDERNAME":"蒋忠道",
"COUNT":18,
"INCOME":"3906.00",
"POORLAT":34.30168,
"POORLON":108.289635
},
{
"FAMILY_ID":"100000109384569",
"HOUSEHOLDERNAME":"文秉坤",
"COUNT":4,
"INCOME":"4625.01",
"POORLAT":null,
"POORLON":null
},
{
"FAMILY_ID":"100000109390877",
"HOUSEHOLDERNAME":"何小霞",
"COUNT":2,
"INCOME":"4997.00",
"POORLAT":34.30485,
"POORLON":108.18079
},
{
"FAMILY_ID":"100000109396798",
"HOUSEHOLDERNAME":"贾秀玲",
"COUNT":3,
"INCOME":"1909.50",
"POORLAT":34.251264974811,
"POORLON":108.245443584141
},
{
"FAMILY_ID":"100000109398167",
"HOUSEHOLDERNAME":"陈会元",
"COUNT":3,
"INCOME":"2909.67",
"POORLAT":null,
"POORLON":null
},
{
"FAMILY_ID":"100000109412350",
"HOUSEHOLDERNAME":"牛平润",
"COUNT":12,
"INCOME":"4049.21",
"POORLAT":null,
"POORLON":null
},
{
"FAMILY_ID":"100000109421779",
"HOUSEHOLDERNAME":"王全明",
"COUNT":2,
"INCOME":"2920.00",
"POORLAT":34.5494733494856,
"POORLON":108.793199303638
},
{
"FAMILY_ID":"100000109453076",
"HOUSEHOLDERNAME":"董合队",
"COUNT":5,
"INCOME":"4361.35",
"POORLAT":null,
"POORLON":null
},
{
"FAMILY_ID":"100000109472074",
"HOUSEHOLDERNAME":"王玉琴",
"COUNT":1,
"INCOME":"3909.77",
"POORLAT":34.5550240278244,
"POORLON":108.49816262722
},
{
"FAMILY_ID":"100000109495614",
"HOUSEHOLDERNAME":"魏亚芹",
"COUNT":1,
"INCOME":"4916.00",
"POORLAT":null,
"POORLON":null
},
{
"FAMILY_ID":"100000109533504",
"HOUSEHOLDERNAME":"张聪芝",
"COUNT":4,
"INCOME":"4321.13",
"POORLAT":34.22363,
"POORLON":108.2627
},
{
"FAMILY_ID":"100000109574122",
"HOUSEHOLDERNAME":"王新潮",
"COUNT":3,
"INCOME":"4863.09",
"POORLAT":34.5563143422953,
"POORLON":108.477323153395
},
{
"FAMILY_ID":"100000109579505",
"HOUSEHOLDERNAME":"赵如娃",
"COUNT":2,
"INCOME":"4694.50",
"POORLAT":34.2323030473931,
"POORLON":108.244647813121
},
{
"FAMILY_ID":"100000109586151",
"HOUSEHOLDERNAME":"张雪芹",
"COUNT":2,
"INCOME":"4878.93",
"POORLAT":34.6719809762606,
"POORLON":108.62152929306
},
{
"FAMILY_ID":"100000109588449",
"HOUSEHOLDERNAME":"王甫宋",
"COUNT":5,
"INCOME":"4911.40",
"POORLAT":34.2503110405508,
"POORLON":108.244895545658
},
{
"FAMILY_ID":"100000109607539",
"HOUSEHOLDERNAME":"翟素梅",
"COUNT":4,
"INCOME":"4935.00",
"POORLAT":34.7872841142327,
"POORLON":108.163641111316
},
{
"FAMILY_ID":"100000109613141",
"HOUSEHOLDERNAME":"成院院",
"COUNT":6,
"INCOME":"3223.00",
"POORLAT":34.2386871156534,
"POORLON":108.215750331935
},
{
"FAMILY_ID":"100000109627036",
"HOUSEHOLDERNAME":"何万宝",
"COUNT":2,
"INCOME":"4532.00",
"POORLAT":34.2349632542954,
"POORLON":108.241641563292
},
{
"FAMILY_ID":"100000109671310",
"HOUSEHOLDERNAME":"董文华",
"COUNT":1,
"INCOME":"3000.00",
"POORLAT":34.375828,
"POORLON":108.03444
},
{
"FAMILY_ID":"100000109672324",
"HOUSEHOLDERNAME":"李坐团",
"COUNT":8,
"INCOME":"4423.00",
"POORLAT":null,
"POORLON":null
},
{
"FAMILY_ID":"100000109675172",
"HOUSEHOLDERNAME":"许英文",
"COUNT":2,
"INCOME":"4679.36",
"POORLAT":34.7548047630234,
"POORLON":108.418684041538
},
{
"FAMILY_ID":"100000109680405",
"HOUSEHOLDERNAME":"吴新国",
"COUNT":2,
"INCOME":"4318.50",
"POORLAT":34.3458455947009,
"POORLON":108.282396268459
},
{
"FAMILY_ID":"100000109689454",
"HOUSEHOLDERNAME":"蒙兵号",
"COUNT":3,
"INCOME":"3229.25",
"POORLAT":34.5563811063766,
"POORLON":108.496813893318
},
{
"FAMILY_ID":"100000109691306",
"HOUSEHOLDERNAME":"王小鸽",
"COUNT":3,
"INCOME":"4989.50",
"POORLAT":34.2508822949324,
"POORLON":108.241355562954
},
{
"FAMILY_ID":"100000109697294",
"HOUSEHOLDERNAME":"陈俊辉",
"COUNT":12,
"INCOME":"2980.00",
"POORLAT":34.4926348924637,
"POORLON":108.141384661198
},
{
"FAMILY_ID":"100000109700516",
"HOUSEHOLDERNAME":"田立社",
"COUNT":3,
"INCOME":"3046.53",
"POORLAT":34.303795,
"POORLON":108.31437
},
{
"FAMILY_ID":"100000109701644",
"HOUSEHOLDERNAME":"张爱敬",
"COUNT":2,
"INCOME":"4347.00",
"POORLAT":34.540913,
"POORLON":108.49386
},
{
"FAMILY_ID":"100000109704712",
"HOUSEHOLDERNAME":"杨选民",
"COUNT":6,
"INCOME":"3526.33",
"POORLAT":34.38065,
"POORLON":108.33625
},
{
"FAMILY_ID":"100000109717283",
"HOUSEHOLDERNAME":"谷永涛",
"COUNT":4,
"INCOME":"4101.50",
"POORLAT":34.25032,
"POORLON":108.29187
},
{
"FAMILY_ID":"100000109728645",
"HOUSEHOLDERNAME":"马保营",
"COUNT":5,
"INCOME":"4774.80",
"POORLAT":null,
"POORLON":null
},
{
"FAMILY_ID":"100000109739452",
"HOUSEHOLDERNAME":"王二女",
"COUNT":1,
"INCOME":"3793.00",
"POORLAT":34.53931,
"POORLON":108.49323
},
{
"FAMILY_ID":"100000109775157",
"HOUSEHOLDERNAME":"翟百存",
"COUNT":6,
"INCOME":"4140.00",
"POORLAT":34.78703,
"POORLON":108.16125
},
{
"FAMILY_ID":"100000109787058",
"HOUSEHOLDERNAME":"张联校",
"COUNT":6,
"INCOME":"4599.33",
"POORLAT":34.375526,
"POORLON":108.3512
},
{
"FAMILY_ID":"100000109787220",
"HOUSEHOLDERNAME":"党焕恒",
"COUNT":9,
"INCOME":"3380.00",
"POORLAT":34.5453352914168,
"POORLON":108.802932463686
},
{
"FAMILY_ID":"100000109798235",
"HOUSEHOLDERNAME":"李亚社",
"COUNT":18,
"INCOME":"2204.33",
"POORLAT":34.23701,
"POORLON":108.21729
},
{
"FAMILY_ID":"100000109800552",
"HOUSEHOLDERNAME":"黄积德",
"COUNT":6,
"INCOME":"4741.67",
"POORLAT":34.38118,
"POORLON":108.275925
},
{
"FAMILY_ID":"100000109808366",
"HOUSEHOLDERNAME":"张玉兰",
"COUNT":3,
"INCOME":"2553.95",
"POORLAT":34.544277,
"POORLON":108.466805
},
{
"FAMILY_ID":"100000109827696",
"HOUSEHOLDERNAME":"赵康定",
"COUNT":6,
"INCOME":"4133.53",
"POORLAT":34.637585,
"POORLON":108.808914
},
{
"FAMILY_ID":"100000109835696",
"HOUSEHOLDERNAME":"王小花",
"COUNT":4,
"INCOME":"3083.75",
"POORLAT":34.25779,
"POORLON":108.29771
},
{
"FAMILY_ID":"100000109838125",
"HOUSEHOLDERNAME":"蔡娜敏",
"COUNT":4,
"INCOME":"2829.29",
"POORLAT":34.303596,
"POORLON":108.28662
},
{
"FAMILY_ID":"100000109856758",
"HOUSEHOLDERNAME":"王党顺",
"COUNT":12,
"INCOME":"3353.40",
"POORLAT":34.2414380171967,
"POORLON":108.228995744705
},
{
"FAMILY_ID":"100000109858371",
"HOUSEHOLDERNAME":"马全禧",
"COUNT":3,
"INCOME":"4603.00",
"POORLAT":34.2991107791117,
"POORLON":108.186019105648
},
{
"FAMILY_ID":"100000109863316",
"HOUSEHOLDERNAME":"李雪芹",
"COUNT":6,
"INCOME":"4665.50",
"POORLAT":34.63749,
"POORLON":108.810715
},
{
"FAMILY_ID":"100000109865559",
"HOUSEHOLDERNAME":"王景锋",
"COUNT":2,
"INCOME":"3794.61",
"POORLAT":34.5571496319286,
"POORLON":108.503683171223
},
{
"FAMILY_ID":"100000109869582",
"HOUSEHOLDERNAME":"冉合作",
"COUNT":15,
"INCOME":"2601.20",
"POORLAT":34.37519,
"POORLON":108.29383
},
{
"FAMILY_ID":"100000109894948",
"HOUSEHOLDERNAME":"马俊哲",
"COUNT":4,
"INCOME":"4212.25",
"POORLAT":34.3054475592618,
"POORLON":108.180047944362
},
{
"FAMILY_ID":"100000109897583",
"HOUSEHOLDERNAME":"陈党峰",
"COUNT":8,
"INCOME":"3761.50",
"POORLAT":34.491554915905,
"POORLON":108.140122175217
},
{
"FAMILY_ID":"100000109914690",
"HOUSEHOLDERNAME":"苏武",
"COUNT":6,
"INCOME":"4242.13",
"POORLAT":34.5996083916028,
"POORLON":108.854092508124
},
{
"FAMILY_ID":"100000109937161",
"HOUSEHOLDERNAME":"杨约",
"COUNT":20,
"INCOME":"2381.21",
"POORLAT":34.2419414576721,
"POORLON":108.2215
},
{
"FAMILY_ID":"100000109950392",
"HOUSEHOLDERNAME":"马彩莲",
"COUNT":4,
"INCOME":"4007.40",
"POORLAT":34.37495,
"POORLON":108.3523
},
{
"FAMILY_ID":"100000109954686",
"HOUSEHOLDERNAME":"南党社",
"COUNT":6,
"INCOME":"3155.33",
"POORLAT":34.363754,
"POORLON":108.35309
},
{
"FAMILY_ID":"100000109954857",
"HOUSEHOLDERNAME":"马维江",
"COUNT":4,
"INCOME":"4790.00",
"POORLAT":34.3056659645788,
"POORLON":108.181302505826
},
{
"FAMILY_ID":"100000109962161",
"HOUSEHOLDERNAME":"谷智辉",
"COUNT":10,
"INCOME":"3416.62",
"POORLAT":34.24727,
"POORLON":108.2923
},
{
"FAMILY_ID":"100000109984704",
"HOUSEHOLDERNAME":"李克锋",
"COUNT":1,
"INCOME":"3189.00",
"POORLAT":34.2203038344613,
"POORLON":108.234605216408
},
{
"FAMILY_ID":"100000109989604",
"HOUSEHOLDERNAME":"李金荣",
"COUNT":10,
"INCOME":"2210.00",
"POORLAT":34.7868372655704,
"POORLON":108.163170375626
},
{
"FAMILY_ID":"100000110008868",
"HOUSEHOLDERNAME":"吕俊清",
"COUNT":4,
"INCOME":"3796.26",
"POORLAT":34.5555083751678,
"POORLON":108.497048377991
},
{
"FAMILY_ID":"100000110017816",
"HOUSEHOLDERNAME":"卢国孝",
"COUNT":5,
"INCOME":"1941.00",
"POORLAT":34.55509,
"POORLON":108.41959
},
{
"FAMILY_ID":"100000110020273",
"HOUSEHOLDERNAME":"李欧里",
"COUNT":8,
"INCOME":"4625.25",
"POORLAT":34.786924307055,
"POORLON":108.160119163429
},
{
"FAMILY_ID":"100000110037230",
"HOUSEHOLDERNAME":"张科社",
"COUNT":15,
"INCOME":"2970.80",
"POORLAT":34.379215,
"POORLON":108.33268
},
{
"FAMILY_ID":"100000110085364",
"HOUSEHOLDERNAME":"南引会",
"COUNT":4,
"INCOME":"4698.00",
"POORLAT":34.342636,
"POORLON":108.362495
},
{
"FAMILY_ID":"100000110095401",
"HOUSEHOLDERNAME":"卢分粮",
"COUNT":5,
"INCOME":"4499.63",
"POORLAT":34.553215,
"POORLON":108.4183
},
{
"FAMILY_ID":"100000110107451",
"HOUSEHOLDERNAME":"胡四维",
"COUNT":8,
"INCOME":"4160.50",
"POORLAT":34.35505,
"POORLON":108.35727
},
{
"FAMILY_ID":"100000110168071",
"HOUSEHOLDERNAME":"杨智斌",
"COUNT":3,
"INCOME":"3633.33",
"POORLAT":34.28688,
"POORLON":108.296265
},
{
"FAMILY_ID":"100000110174467",
"HOUSEHOLDERNAME":"于建朝",
"COUNT":6,
"INCOME":"4902.13",
"POORLAT":null,
"POORLON":null
},
{
"FAMILY_ID":"100000110177188",
"HOUSEHOLDERNAME":"焦志元",
"COUNT":12,
"INCOME":"2948.80",
"POORLAT":34.622192,
"POORLON":108.81138
},
{
"FAMILY_ID":"100000110185437",
"HOUSEHOLDERNAME":"郭彦",
"COUNT":3,
"INCOME":"4573.97",
"POORLAT":34.544277,
"POORLON":108.466805
},
{
"FAMILY_ID":"100000110288446",
"HOUSEHOLDERNAME":"高兴",
"COUNT":2,
"INCOME":"1896.50",
"POORLAT":34.5464345675147,
"POORLON":108.527274619168
},
{
"FAMILY_ID":"100000110347987",
"HOUSEHOLDERNAME":"刘军旗",
"COUNT":1,
"INCOME":"3631.00",
"POORLAT":34.669514,
"POORLON":108.61953
},
{
"FAMILY_ID":"100000110360124",
"HOUSEHOLDERNAME":"高忠玉",
"COUNT":4,
"INCOME":"2425.82",
"POORLAT":34.54759,
"POORLON":108.52636
},
{
"FAMILY_ID":"100000110408393",
"HOUSEHOLDERNAME":"刘有山",
"COUNT":4,
"INCOME":"4967.00",
"POORLAT":34.599335,
"POORLON":108.85362
},
{
"FAMILY_ID":"100000110410486",
"HOUSEHOLDERNAME":"樊纪武",
"COUNT":16,
"INCOME":"2250.10",
"POORLAT":34.592094,
"POORLON":108.823975
},
{
"FAMILY_ID":"100000110416539",
"HOUSEHOLDERNAME":"成大卫",
"COUNT":5,
"INCOME":"3172.00",
"POORLAT":34.261154,
"POORLON":108.26918
},
{
"FAMILY_ID":"100000110475233",
"HOUSEHOLDERNAME":"张培芳",
"COUNT":2,
"INCOME":"3603.00",
"POORLAT":34.3537254333496,
"POORLON":108.336486816406
},
{
"FAMILY_ID":"100000110482288",
"HOUSEHOLDERNAME":"蒋智友",
"COUNT":8,
"INCOME":"3219.10",
"POORLAT":34.59188,
"POORLON":108.82225
},
{
"FAMILY_ID":"100000110501740",
"HOUSEHOLDERNAME":"杨彩云",
"COUNT":4,
"INCOME":"1467.45",
"POORLAT":34.382576,
"POORLON":108.36867
},
{
"FAMILY_ID":"100000110507458",
"HOUSEHOLDERNAME":"潘凤群",
"COUNT":6,
"INCOME":"3969.00",
"POORLAT":34.5998009163133,
"POORLON":108.853639758133
},
{
"FAMILY_ID":"100000110535915",
"HOUSEHOLDERNAME":"杨友运",
"COUNT":12,
"INCOME":"4570.80",
"POORLAT":34.592064,
"POORLON":108.82348
},
{
"FAMILY_ID":"100000110537130",
"HOUSEHOLDERNAME":"南恒堂",
"COUNT":6,
"INCOME":"1529.33",
"POORLAT":34.34082,
"POORLON":108.356544
},
{
"FAMILY_ID":"100000110551233",
"HOUSEHOLDERNAME":"庞玉芹",
"COUNT":2,
"INCOME":"4515.00",
"POORLAT":34.34065,
"POORLON":108.35865
},
{
"FAMILY_ID":"100000110578548",
"HOUSEHOLDERNAME":"王宽省",
"COUNT":6,
"INCOME":"4753.90",
"POORLAT":34.378674,
"POORLON":108.35821
},
{
"FAMILY_ID":"100000110587260",
"HOUSEHOLDERNAME":"陆世贵",
"COUNT":9,
"INCOME":"4073.37",
"POORLAT":34.59934,
"POORLON":108.853615
},
{
"FAMILY_ID":"100000110612451",
"HOUSEHOLDERNAME":"贾小春",
"COUNT":1,
"INCOME":"2875.00",
"POORLAT":34.449512,
"POORLON":108.301865
},
{
"FAMILY_ID":"100000110618313",
"HOUSEHOLDERNAME":"仝小军",
"COUNT":4,
"INCOME":"4650.50",
"POORLAT":34.5992203526094,
"POORLON":108.853033067095
},
{
"FAMILY_ID":"100000110637157",
"HOUSEHOLDERNAME":"李凤琴",
"COUNT":3,
"INCOME":"3250.00",
"POORLAT":null,
"POORLON":null
},
{
"FAMILY_ID":"100000110653778",
"HOUSEHOLDERNAME":"解书宏",
"COUNT":4,
"INCOME":"3167.50",
"POORLAT":null,
"POORLON":null
},
{
"FAMILY_ID":"100000110657567",
"HOUSEHOLDERNAME":"胡忠宝",
"COUNT":6,
"INCOME":"3485.00",
"POORLAT":34.5211129119101,
"POORLON":108.260186298293
},
{
"FAMILY_ID":"100000110687632",
"HOUSEHOLDERNAME":"赵建民",
"COUNT":9,
"INCOME":"3136.00",
"POORLAT":34.59934,
"POORLON":108.853615
},
{
"FAMILY_ID":"100000110688543",
"HOUSEHOLDERNAME":"王跟建",
"COUNT":2,
"INCOME":"4155.36",
"POORLAT":34.678562,
"POORLON":108.89167
},
{
"FAMILY_ID":"100000110701182",
"HOUSEHOLDERNAME":"代四姓",
"COUNT":3,
"INCOME":"1788.33",
"POORLAT":34.545044228412,
"POORLON":108.521546289843
},
{
"FAMILY_ID":"100000110720030",
"HOUSEHOLDERNAME":"邓峰伟",
"COUNT":10,
"INCOME":"4751.56",
"POORLAT":34.46009,
"POORLON":108.35689
},
{
"FAMILY_ID":"100000110724714",
"HOUSEHOLDERNAME":"张广元",
"COUNT":3,
"INCOME":"4602.00",
"POORLAT":34.539623,
"POORLON":108.49572
},
{
"FAMILY_ID":"100000110726928",
"HOUSEHOLDERNAME":"贺兴全",
"COUNT":12,
"INCOME":"3813.75",
"POORLAT":null,
"POORLON":null
},
{
"FAMILY_ID":"100000110763242",
"HOUSEHOLDERNAME":"曹岗",
"COUNT":3,
"INCOME":"2880.00",
"POORLAT":34.59934,
"POORLON":108.853615
},
{
"FAMILY_ID":"100000110791196",
"HOUSEHOLDERNAME":"杨献武",
"COUNT":18,
"INCOME":"4331.43",
"POORLAT":34.34145,
"POORLON":108.36165
},
{
"FAMILY_ID":"100000110807421",
"HOUSEHOLDERNAME":"张宗才",
"COUNT":6,
"INCOME":"3719.67",
"POORLAT":34.3536682128906,
"POORLON":108.338790893555
},
{
"FAMILY_ID":"100000110823684",
"HOUSEHOLDERNAME":"胡俊海",
"COUNT":4,
"INCOME":"3328.95",
"POORLAT":34.368828,
"POORLON":108.34037
},
{
"FAMILY_ID":"100000110826269",
"HOUSEHOLDERNAME":"赵建良",
"COUNT":9,
"INCOME":"3687.00",
"POORLAT":null,
"POORLON":null
},
{
"FAMILY_ID":"100000110827381",
"HOUSEHOLDERNAME":"赵旭辉",
"COUNT":3,
"INCOME":"3267.80",
"POORLAT":34.3521270751953,
"POORLON":108.335266113281
},
{
"FAMILY_ID":"100000110900558",
"HOUSEHOLDERNAME":"田忠伟",
"COUNT":4,
"INCOME":"4877.00",
"POORLAT":34.4479688681157,
"POORLON":108.338768002599
},
{
"FAMILY_ID":"100000110990072",
"HOUSEHOLDERNAME":"冉淑芹",
"COUNT":6,
"INCOME":"3518.67",
"POORLAT":34.3536643981934,
"POORLON":108.336776733398
},
{
"FAMILY_ID":"100000111001352",
"HOUSEHOLDERNAME":"曹武群",
"COUNT":1,
"INCOME":"4174.00",
"POORLAT":34.3537063598633,
"POORLON":108.337867736816
},
{
"FAMILY_ID":"100000111045040",
"HOUSEHOLDERNAME":"张西平",
"COUNT":1,
"INCOME":"4339.00",
"POORLAT":34.67605,
"POORLON":108.686325
},
{
"FAMILY_ID":"100000111054055",
"HOUSEHOLDERNAME":"屈彩风",
"COUNT":9,
"INCOME":"3341.33",
"POORLAT":34.5848520006943,
"POORLON":108.804429153442
},
{
"FAMILY_ID":"100000111106855",
"HOUSEHOLDERNAME":"冉护军",
"COUNT":15,
"INCOME":"4043.80",
"POORLAT":34.374943,
"POORLON":108.30464
},
{
"FAMILY_ID":"100000111120729",
"HOUSEHOLDERNAME":"张会莲",
"COUNT":6,
"INCOME":"3933.00",
"POORLAT":34.5620460271327,
"POORLON":108.769859450678
},
{
"FAMILY_ID":"100000111152116",
"HOUSEHOLDERNAME":"王甲力",
"COUNT":10,
"INCOME":"3849.00",
"POORLAT":34.5626777975523,
"POORLON":108.769751455096
},
{
"FAMILY_ID":"100000111266605",
"HOUSEHOLDERNAME":"王丽玲",
"COUNT":4,
"INCOME":"2668.15",
"POORLAT":null,
"POORLON":null
},
{
"FAMILY_ID":"100000111274548",
"HOUSEHOLDERNAME":"陈新正",
"COUNT":4,
"INCOME":"2830.41",
"POORLAT":34.64362,
"POORLON":108.73952
},
{
"FAMILY_ID":"100000111307170",
"HOUSEHOLDERNAME":"穆秀云",
"COUNT":9,
"INCOME":"4285.67",
"POORLAT":34.5766752634555,
"POORLON":108.756529324289
},
{
"FAMILY_ID":"100000111450991",
"HOUSEHOLDERNAME":"仇志祥",
"COUNT":12,
"INCOME":"3868.33",
"POORLAT":34.64401,
"POORLON":108.78544
},
{
"FAMILY_ID":"100000111577771",
"HOUSEHOLDERNAME":"张增宝",
"COUNT":1,
"INCOME":"4674.00",
"POORLAT":34.5418173988113,
"POORLON":108.495449753304
},
{
"FAMILY_ID":"100000111583008",
"HOUSEHOLDERNAME":"张宜录",
"COUNT":3,
"INCOME":"3689.33",
"POORLAT":34.5432280760574,
"POORLON":108.496649008598
},
{
"FAMILY_ID":"100000111619425",
"HOUSEHOLDERNAME":"曹玉珍",
"COUNT":2,
"INCOME":"3804.56",
"POORLAT":34.556793,
"POORLON":108.503876
},
{
"FAMILY_ID":"100000111637059",
"HOUSEHOLDERNAME":"李孝明",
"COUNT":4,
"INCOME":"3328.75",
"POORLAT":34.5352478027344,
"POORLON":108.508651733398
},
{
"FAMILY_ID":"100000111641875",
"HOUSEHOLDERNAME":"张艳叶",
"COUNT":1,
"INCOME":"2809.00",
"POORLAT":34.5309219360352,
"POORLON":108.515274047852
},
{
"FAMILY_ID":"100000111651590",
"HOUSEHOLDERNAME":"李继隆",
"COUNT":3,
"INCOME":"4454.67",
"POORLAT":34.5310287475586,
"POORLON":108.510414123535
},
{
"FAMILY_ID":"100000111659521",
"HOUSEHOLDERNAME":"李建旭",
"COUNT":3,
"INCOME":"4305.33",
"POORLAT":34.5313491821289,
"POORLON":108.51530456543
},
{
"FAMILY_ID":"100000111782649",
"HOUSEHOLDERNAME":"闫铁娃",
"COUNT":2,
"INCOME":"4845.80",
"POORLAT":34.2593778125654,
"POORLON":108.175640485653
},
{
"FAMILY_ID":"100000111786965",
"HOUSEHOLDERNAME":"刘桂兰",
"COUNT":9,
"INCOME":"3062.00",
"POORLAT":34.232883,
"POORLON":108.19272
},
{
"FAMILY_ID":"100000111818765",
"HOUSEHOLDERNAME":"贾文虎",
"COUNT":8,
"INCOME":"4980.00",
"POORLAT":34.26376,
"POORLON":108.25502
},
{
"FAMILY_ID":"100000111821311",
"HOUSEHOLDERNAME":"李岁团",
"COUNT":10,
"INCOME":"2850.77",
"POORLAT":34.25195,
"POORLON":108.17785
},
{
"FAMILY_ID":"100000111829453",
"HOUSEHOLDERNAME":"蒋党社",
"COUNT":6,
"INCOME":"3662.33",
"POORLAT":34.29971,
"POORLON":108.29974
},
{
"FAMILY_ID":"100000111840198",
"HOUSEHOLDERNAME":"韩继兰",
"COUNT":3,
"INCOME":"2972.00",
"POORLAT":34.294357,
"POORLON":108.24179
},
{
"FAMILY_ID":"100000111842191",
"HOUSEHOLDERNAME":"王党社",
"COUNT":4,
"INCOME":"4250.06",
"POORLAT":34.28736,
"POORLON":108.292496
},
{
"FAMILY_ID":"100000111849912",
"HOUSEHOLDERNAME":"任战平",
"COUNT":4,
"INCOME":"3708.75",
"POORLAT":34.3045608579885,
"POORLON":108.287236838271
},
{
"FAMILY_ID":"100000111851586",
"HOUSEHOLDERNAME":"尹立户",
"COUNT":8,
"INCOME":"3033.80",
"POORLAT":34.259125,
"POORLON":108.254005
},
{
"FAMILY_ID":"100000111873858",
"HOUSEHOLDERNAME":"闫海生",
"COUNT":8,
"INCOME":"4991.13",
"POORLAT":34.2593145044145,
"POORLON":108.183979204476
},
{
"FAMILY_ID":"100000111886286",
"HOUSEHOLDERNAME":"付桂莲",
"COUNT":3,
"INCOME":"2776.00",
"POORLAT":34.22005,
"POORLON":108.23425
},
{
"FAMILY_ID":"100000111897790",
"HOUSEHOLDERNAME":"杨桂花",
"COUNT":3,
"INCOME":"3928.67",
"POORLAT":34.24727,
"POORLON":108.2923
},
{
"FAMILY_ID":"100000111920254",
"HOUSEHOLDERNAME":"刘文国",
"COUNT":12,
"INCOME":"4026.48",
"POORLAT":34.25779,
"POORLON":108.29771
},
{
"FAMILY_ID":"100000111927851",
"HOUSEHOLDERNAME":"刘宁歌",
"COUNT":3,
"INCOME":"4526.67",
"POORLAT":34.286118,
"POORLON":108.29298
},
{
"FAMILY_ID":"100000111931980",
"HOUSEHOLDERNAME":"苏战国",
"COUNT":16,
"INCOME":"2716.90",
"POORLAT":34.26205,
"POORLON":108.25625
},
{
"FAMILY_ID":"100000111943310",
"HOUSEHOLDERNAME":"余争喜",
"COUNT":2,
"INCOME":"2918.00",
"POORLAT":34.306267,
"POORLON":108.283295
},
{
"FAMILY_ID":"100000111955439",
"HOUSEHOLDERNAME":"李英",
"COUNT":4,
"INCOME":"4662.00",
"POORLAT":34.6285975037076,
"POORLON":108.924353853176
},
{
"FAMILY_ID":"100000111959970",
"HOUSEHOLDERNAME":"何建英",
"COUNT":3,
"INCOME":"2962.50",
"POORLAT":34.219948,
"POORLON":108.233185
},
{
"FAMILY_ID":"100000111968451",
"HOUSEHOLDERNAME":"侯素琴",
"COUNT":8,
"INCOME":"4828.05",
"POORLAT":34.262398,
"POORLON":108.25367
},
{
"FAMILY_ID":"100000111993513",
"HOUSEHOLDERNAME":"赵年今",
"COUNT":4,
"INCOME":"3959.50",
"POORLAT":34.607163059059,
"POORLON":108.9270583725
},
{
"FAMILY_ID":"100000111995786",
"HOUSEHOLDERNAME":"杨波",
"COUNT":8,
"INCOME":"2788.70",
"POORLAT":34.25789,
"POORLON":108.28996
},
{
"FAMILY_ID":"100000112017740",
"HOUSEHOLDERNAME":"王刚刚",
"COUNT":3,
"INCOME":"3665.00",
"POORLAT":34.2454859058718,
"POORLON":108.249056110525
},
{
"FAMILY_ID":"100000112020371",
"HOUSEHOLDERNAME":"李富涛",
"COUNT":6,
"INCOME":"341.07",
"POORLAT":34.251846,
"POORLON":108.17758
},
{
"FAMILY_ID":"100000112023327",
"HOUSEHOLDERNAME":"王爱琴",
"COUNT":3,
"INCOME":"4932.00",
"POORLAT":34.6075022464591,
"POORLON":108.927782882224
},
{
"FAMILY_ID":"100000112033590",
"HOUSEHOLDERNAME":"杨挣选",
"COUNT":4,
"INCOME":"3565.05",
"POORLAT":34.28625,
"POORLON":108.29525
},
{
"FAMILY_ID":"100000112034890",
"HOUSEHOLDERNAME":"余党卫",
"COUNT":12,
"INCOME":"4230.00",
"POORLAT":34.3036,
"POORLON":108.29284
},
{
"FAMILY_ID":"100000112062819",
"HOUSEHOLDERNAME":"何凤迎",
"COUNT":2,
"INCOME":"2459.50",
"POORLAT":null,
"POORLON":null
},
{
"FAMILY_ID":"100000112078308",
"HOUSEHOLDERNAME":"刘重娥",
"COUNT":8,
"INCOME":"3044.00",
"POORLAT":34.6122862428617,
"POORLON":108.926854770119
},
{
"FAMILY_ID":"100000112132511",
"HOUSEHOLDERNAME":"张卫社",
"COUNT":15,
"INCOME":"4576.80",
"POORLAT":34.232216,
"POORLON":108.19068
},
{
"FAMILY_ID":"100000112140302",
"HOUSEHOLDERNAME":"谷争国",
"COUNT":2,
"INCOME":"4209.00",
"POORLAT":34.24727,
"POORLON":108.2923
},
{
"FAMILY_ID":"100000112154809",
"HOUSEHOLDERNAME":"王军芳",
"COUNT":5,
"INCOME":"2760.00",
"POORLAT":34.287804,
"POORLON":108.29539
},
{
"FAMILY_ID":"100000112157386",
"HOUSEHOLDERNAME":"王选茂",
"COUNT":1,
"INCOME":"4088.28",
"POORLAT":34.303596,
"POORLON":108.28662
},
{
"FAMILY_ID":"100000112175239",
"HOUSEHOLDERNAME":"闫站稳",
"COUNT":3,
"INCOME":"4921.50",
"POORLAT":34.25876439129,
"POORLON":108.176849609319
},
{
"FAMILY_ID":"100000112192368",
"HOUSEHOLDERNAME":"范玉珍",
"COUNT":4,
"INCOME":"3330.10",
"POORLAT":34.25789,
"POORLON":108.28996
},
{
"FAMILY_ID":"100000112193821",
"HOUSEHOLDERNAME":"王青",
"COUNT":10,
"INCOME":"2049.40",
"POORLAT":34.450024,
"POORLON":108.35219
},
{
"FAMILY_ID":"100000112197898",
"HOUSEHOLDERNAME":"谷五选",
"COUNT":2,
"INCOME":"3730.10",
"POORLAT":34.24698,
"POORLON":108.28823
},
{
"FAMILY_ID":"100000112244573",
"HOUSEHOLDERNAME":"李求社",
"COUNT":10,
"INCOME":"2920.00",
"POORLAT":null,
"POORLON":null
},
{
"FAMILY_ID":"100000112270484",
"HOUSEHOLDERNAME":"王彦辉",
"COUNT":9,
"INCOME":"2671.33",
"POORLAT":34.2322,
"POORLON":108.19104
},
{
"FAMILY_ID":"100000112281396",
"HOUSEHOLDERNAME":"侯明明",
"COUNT":6,
"INCOME":"2843.67",
"POORLAT":null,
"POORLON":null
},
{
"FAMILY_ID":"100000112312381",
"HOUSEHOLDERNAME":"杨争奎",
"COUNT":6,
"INCOME":"2400.00",
"POORLAT":34.30747,
"POORLON":108.43
},
{
"FAMILY_ID":"100000112319712",
"HOUSEHOLDERNAME":"刘群英",
"COUNT":6,
"INCOME":"4181.50",
"POORLAT":34.550262,
"POORLON":108.888794
},
{
"FAMILY_ID":"100000112357678",
"HOUSEHOLDERNAME":"张文斌",
"COUNT":9,
"INCOME":"3133.67",
"POORLAT":34.23304,
"POORLON":108.19136
},
{
"FAMILY_ID":"100000112363612",
"HOUSEHOLDERNAME":"尹志武",
"COUNT":5,
"INCOME":"2183.20",
"POORLAT":34.25032,
"POORLON":108.29187
},
{
"FAMILY_ID":"100000112376317",
"HOUSEHOLDERNAME":"杨全民",
"COUNT":6,
"INCOME":"3040.00",
"POORLAT":34.6069035108525,
"POORLON":108.922386684579
},
{
"FAMILY_ID":"100000112399579",
"HOUSEHOLDERNAME":"何昌谋",
"COUNT":4,
"INCOME":"2726.40",
"POORLAT":34.22024,
"POORLON":108.237785
},
{
"FAMILY_ID":"100000112421096",
"HOUSEHOLDERNAME":"杨水胜",
"COUNT":3,
"INCOME":"2760.00",
"POORLAT":34.30806,
"POORLON":108.4322
},
{
"FAMILY_ID":"100000112444683",
"HOUSEHOLDERNAME":"程成省",
"COUNT":6,
"INCOME":"3730.67",
"POORLAT":34.39234,
"POORLON":108.21372
},
{
"FAMILY_ID":"100000112452521",
"HOUSEHOLDERNAME":"张满社",
"COUNT":2,
"INCOME":"4889.50",
"POORLAT":34.292843,
"POORLON":108.24193
},
{
"FAMILY_ID":"100000112506566",
"HOUSEHOLDERNAME":"侯党国",
"COUNT":5,
"INCOME":"2873.92",
"POORLAT":null,
"POORLON":null
},
{
"FAMILY_ID":"100000112523945",
"HOUSEHOLDERNAME":"杨松柏",
"COUNT":2,
"INCOME":"3477.00",
"POORLAT":34.3747008271422,
"POORLON":108.135364115351
},
{
"FAMILY_ID":"100000112524643",
"HOUSEHOLDERNAME":"韩斌堂",
"COUNT":9,
"INCOME":"4457.00",
"POORLAT":34.2342175238905,
"POORLON":108.197005787045
},
{
"FAMILY_ID":"100000112529528",
"HOUSEHOLDERNAME":"南玉琴",
"COUNT":6,
"INCOME":"4214.20",
"POORLAT":null,
"POORLON":null
},
{
"FAMILY_ID":"100000112537542",
"HOUSEHOLDERNAME":"张建华",
"COUNT":1,
"INCOME":"3641.16",
"POORLAT":34.337864,
"POORLON":108.10461
},
{
"FAMILY_ID":"100000112543525",
"HOUSEHOLDERNAME":"陈淑梅",
"COUNT":16,
"INCOME":"2966.85",
"POORLAT":34.5467729969212,
"POORLON":108.750037898025
},
{
"FAMILY_ID":"100000112555576",
"HOUSEHOLDERNAME":"李建基",
"COUNT":6,
"INCOME":"1519.65",
"POORLAT":34.599335,
"POORLON":108.85362
},
{
"FAMILY_ID":"100000112570216",
"HOUSEHOLDERNAME":"李增朋",
"COUNT":4,
"INCOME":"4300.00",
"POORLAT":null,
"POORLON":null
},
{
"FAMILY_ID":"100000112572970",
"HOUSEHOLDERNAME":"胡俊茂",
"COUNT":4,
"INCOME":"4697.00",
"POORLAT":34.372353,
"POORLON":108.33284
},
{
"FAMILY_ID":"100000112584126",
"HOUSEHOLDERNAME":"杨拥护",
"COUNT":4,
"INCOME":"2394.25",
"POORLAT":34.3760511623922,
"POORLON":108.135399238441
},
{
"FAMILY_ID":"100000112617288",
"HOUSEHOLDERNAME":"李秀芳",
"COUNT":4,
"INCOME":"4110.00",
"POORLAT":34.4486507056485,
"POORLON":108.319158841654
},
{
"FAMILY_ID":"100000112632540",
"HOUSEHOLDERNAME":"杨茂新",
"COUNT":6,
"INCOME":"1798.00",
"POORLAT":34.5995160678094,
"POORLON":108.853838295244
},
{
"FAMILY_ID":"100000112647519",
"HOUSEHOLDERNAME":"弓峰刚",
"COUNT":4,
"INCOME":"4209.00",
"POORLAT":34.2363754518727,
"POORLON":108.321107758353
},
{
"FAMILY_ID":"100000112650818",
"HOUSEHOLDERNAME":"杨维维",
"COUNT":6,
"INCOME":"2956.00",
"POORLAT":34.25245,
"POORLON":108.20325
},
{
"FAMILY_ID":"100000112677013",
"HOUSEHOLDERNAME":"金思林",
"COUNT":2,
"INCOME":"4600.00",
"POORLAT":34.429256439209,
"POORLON":108.334297180176
},
{
"FAMILY_ID":"100000112708981",
"HOUSEHOLDERNAME":"王永安",
"COUNT":15,
"INCOME":"3899.20",
"POORLAT":34.5482007265091,
"POORLON":108.720241546631
},
{
"FAMILY_ID":"100000112711309",
"HOUSEHOLDERNAME":"李长青",
"COUNT":2,
"INCOME":"3660.00",
"POORLAT":34.6101920418813,
"POORLON":108.92493897495
},
{
"FAMILY_ID":"100000112723898",
"HOUSEHOLDERNAME":"张二保",
"COUNT":10,
"INCOME":"4596.20",
"POORLAT":34.2658608436584,
"POORLON":108.346002054214
},
{
"FAMILY_ID":"100000112724578",
"HOUSEHOLDERNAME":"赵海峰",
"COUNT":4,
"INCOME":"2936.00",
"POORLAT":34.4295501708984,
"POORLON":108.34260559082
},
{
"FAMILY_ID":"100000112738596",
"HOUSEHOLDERNAME":"南立军",
"COUNT":2,
"INCOME":"3249.21",
"POORLAT":34.450054,
"POORLON":108.35216
},
{
"FAMILY_ID":"100000112748790",
"HOUSEHOLDERNAME":"康淑侠",
"COUNT":8,
"INCOME":"1489.50",
"POORLAT":34.39074,
"POORLON":108.21652
},
{
"FAMILY_ID":"100000112749131",
"HOUSEHOLDERNAME":"成坐会",
"COUNT":20,
"INCOME":"4057.50",
"POORLAT":34.261,
"POORLON":108.2702
},
{
"FAMILY_ID":"100000112765623",
"HOUSEHOLDERNAME":"王航博",
"COUNT":1,
"INCOME":"4244.43",
"POORLAT":34.55439,
"POORLON":108.48839
},
{
"FAMILY_ID":"100000112777984",
"HOUSEHOLDERNAME":"左争捐",
"COUNT":2,
"INCOME":"4918.50",
"POORLAT":34.4345779418945,
"POORLON":108.330764770508
},
{
"FAMILY_ID":"100000112800470",
"HOUSEHOLDERNAME":"刘建厂",
"COUNT":8,
"INCOME":"4568.75",
"POORLAT":34.3254979023491,
"POORLON":108.178886137802
},
{
"FAMILY_ID":"100000112803661",
"HOUSEHOLDERNAME":"董战志",
"COUNT":2,
"INCOME":"1687.50",
"POORLAT":null,
"POORLON":null
},
{
"FAMILY_ID":"100000112812278",
"HOUSEHOLDERNAME":"侯萌萌",
"COUNT":2,
"INCOME":"2882.95",
"POORLAT":null,
"POORLON":null
},
{
"FAMILY_ID":"100000112819961",
"HOUSEHOLDERNAME":"王海辉",
"COUNT":5,
"INCOME":"3441.12",
"POORLAT":34.544277,
"POORLON":108.466805
},
{
"FAMILY_ID":"100000112826716",
"HOUSEHOLDERNAME":"翟凤英",
"COUNT":6,
"INCOME":"4592.90",
"POORLAT":34.2589997529983,
"POORLON":108.348909568787
},
{
"FAMILY_ID":"100000112849553",
"HOUSEHOLDERNAME":"翁仁菲",
"COUNT":6,
"INCOME":"4407.64",
"POORLAT":null,
"POORLON":null
},
{
"FAMILY_ID":"100000112852000",
"HOUSEHOLDERNAME":"何春英",
"COUNT":18,
"INCOME":"4700.00",
"POORLAT":34.311653,
"POORLON":108.43188
},
{
"FAMILY_ID":"100000112866286",
"HOUSEHOLDERNAME":"左生华",
"COUNT":2,
"INCOME":"3409.15",
"POORLAT":34.433219909668,
"POORLON":108.327575683594
},
{
"FAMILY_ID":"100000112869852",
"HOUSEHOLDERNAME":"李喜娥",
"COUNT":10,
"INCOME":"4222.60",
"POORLAT":34.28365,
"POORLON":108.414665
},
{
"FAMILY_ID":"100000112870930",
"HOUSEHOLDERNAME":"侯立党",
"COUNT":3,
"INCOME":"2994.40",
"POORLAT":34.28392,
"POORLON":108.27452
},
{
"FAMILY_ID":"100000112879444",
"HOUSEHOLDERNAME":"王建春",
"COUNT":5,
"INCOME":"4982.12",
"POORLAT":34.2507972717285,
"POORLON":108.137657165527
},
{
"FAMILY_ID":"100000112883532",
"HOUSEHOLDERNAME":"马遵遵",
"COUNT":16,
"INCOME":"4697.50",
"POORLAT":34.26495,
"POORLON":108.25233
},
{
"FAMILY_ID":"100000112905310",
"HOUSEHOLDERNAME":"史成科",
"COUNT":1,
"INCOME":"3250.00",
"POORLAT":null,
"POORLON":null
},
{
"FAMILY_ID":"100000112922217",
"HOUSEHOLDERNAME":"胡运河",
"COUNT":14,
"INCOME":"1706.29",
"POORLAT":34.3701900904629,
"POORLON":108.330181690497
},
{
"FAMILY_ID":"100000112942505",
"HOUSEHOLDERNAME":"杨淑芳",
"COUNT":4,
"INCOME":"4729.25",
"POORLAT":34.5420058306885,
"POORLON":108.498600991402
},
{
"FAMILY_ID":"100000112949549",
"HOUSEHOLDERNAME":"张凤娥",
"COUNT":2,
"INCOME":"1230.10",
"POORLAT":34.283577,
"POORLON":108.27666
},
{
"FAMILY_ID":"100000112958082",
"HOUSEHOLDERNAME":"赵宇坤",
"COUNT":8,
"INCOME":"4859.20",
"POORLAT":34.264153,
"POORLON":108.253334
},
{
"FAMILY_ID":"100000112976591",
"HOUSEHOLDERNAME":"侯西平",
"COUNT":3,
"INCOME":"2408.18",
"POORLAT":null,
"POORLON":null
},
{
"FAMILY_ID":"100000112986789",
"HOUSEHOLDERNAME":"张新祥",
"COUNT":2,
"INCOME":"4609.00",
"POORLAT":34.54121,
"POORLON":108.49399
},
{
"FAMILY_ID":"100000113012300",
"HOUSEHOLDERNAME":"李麦麦",
"COUNT":2,
"INCOME":"2826.40",
"POORLAT":null,
"POORLON":null
},
{
"FAMILY_ID":"100000113015457",
"HOUSEHOLDERNAME":"李秀莲",
"COUNT":4,
"INCOME":"4278.85",
"POORLAT":null,
"POORLON":null
},
{
"FAMILY_ID":"100000113048116",
"HOUSEHOLDERNAME":"赵桂英",
"COUNT":16,
"INCOME":"2401.88",
"POORLAT":34.263535,
"POORLON":108.2564
},
{
"FAMILY_ID":"100000113137067",
"HOUSEHOLDERNAME":"朱旭州",
"COUNT":2,
"INCOME":"3009.50",
"POORLAT":34.21799,
"POORLON":108.28184
},
{
"FAMILY_ID":"100000113137825",
"HOUSEHOLDERNAME":"安振清",
"COUNT":3,
"INCOME":"4228.00",
"POORLAT":34.48184,
"POORLON":108.58876
},
{
"FAMILY_ID":"100000113162955",
"HOUSEHOLDERNAME":"吴丁真",
"COUNT":4,
"INCOME":"3631.50",
"POORLAT":null,
"POORLON":null
},
{
"FAMILY_ID":"100000113175273",
"HOUSEHOLDERNAME":"韩玉民",
"COUNT":2,
"INCOME":"3634.50",
"POORLAT":null,
"POORLON":null
},
{
"FAMILY_ID":"100000113229759",
"HOUSEHOLDERNAME":"付金秀",
"COUNT":2,
"INCOME":"3242.50",
"POORLAT":34.231823,
"POORLON":108.265526
},
{
"FAMILY_ID":"100000113259549",
"HOUSEHOLDERNAME":"马雪琴",
"COUNT":12,
"INCOME":"4951.00",
"POORLAT":34.635193,
"POORLON":108.783424
},
{
"FAMILY_ID":"100000113275997",
"HOUSEHOLDERNAME":"王宣布",
"COUNT":2,
"INCOME":"2700.00",
"POORLAT":34.43412,
"POORLON":108.30426
},
{
"FAMILY_ID":"100000113283355",
"HOUSEHOLDERNAME":"赵旭旭",
"COUNT":3,
"INCOME":"3011.60",
"POORLAT":34.23258,
"POORLON":108.26739
},
{
"FAMILY_ID":"100000113288959",
"HOUSEHOLDERNAME":"李平安",
"COUNT":3,
"INCOME":"4345.33",
"POORLAT":null,
"POORLON":null
},
{
"FAMILY_ID":"100000113289076",
"HOUSEHOLDERNAME":"李逢源",
"COUNT":3,
"INCOME":"3657.00",
"POORLAT":34.5300636291504,
"POORLON":108.512771606445
},
{
"FAMILY_ID":"100000113303804",
"HOUSEHOLDERNAME":"李诗荇",
"COUNT":2,
"INCOME":"2391.60",
"POORLAT":null,
"POORLON":null
},
{
"FAMILY_ID":"100000113311526",
"HOUSEHOLDERNAME":"杨会珍",
"COUNT":3,
"INCOME":"4974.67",
"POORLAT":null,
"POORLON":null
},
{
"FAMILY_ID":"100000113333118",
"HOUSEHOLDERNAME":"贾兵练",
"COUNT":2,
"INCOME":"3959.00",
"POORLAT":34.367112186879,
"POORLON":108.130605357643
},
{
"FAMILY_ID":"100000113338003",
"HOUSEHOLDERNAME":"李选社",
"COUNT":10,
"INCOME":"4446.80",
"POORLAT":34.3636866736713,
"POORLON":108.187365015185
},
{
"FAMILY_ID":"100000113339354",
"HOUSEHOLDERNAME":"付长生",
"COUNT":10,
"INCOME":"2511.60",
"POORLAT":34.23399,
"POORLON":108.24006
},
{
"FAMILY_ID":"100000113362910",
"HOUSEHOLDERNAME":"季淑云",
"COUNT":1,
"INCOME":"4667.00",
"POORLAT":34.6242613792419,
"POORLON":108.542568087578
},
{
"FAMILY_ID":"100000113367013",
"HOUSEHOLDERNAME":"司宗茂",
"COUNT":6,
"INCOME":"4446.33",
"POORLAT":34.390835,
"POORLON":108.21985
},
{
"FAMILY_ID":"100000113377176",
"HOUSEHOLDERNAME":"李景海",
"COUNT":4,
"INCOME":"4811.40",
"POORLAT":34.5581946633638,
"POORLON":108.888868518837
},
{
"FAMILY_ID":"100000113377609",
"HOUSEHOLDERNAME":"赵民长",
"COUNT":6,
"INCOME":"4101.17",
"POORLAT":34.22743,
"POORLON":108.27106
},
{
"FAMILY_ID":"100000113385844",
"HOUSEHOLDERNAME":"李耀宗",
"COUNT":6,
"INCOME":"2815.67",
"POORLAT":null,
"POORLON":null
},
{
"FAMILY_ID":"100000113386753",
"HOUSEHOLDERNAME":"吴国峰",
"COUNT":6,
"INCOME":"4860.17",
"POORLAT":null,
"POORLON":null
},
{
"FAMILY_ID":"100000113388344",
"HOUSEHOLDERNAME":"韩小娟",
"COUNT":2,
"INCOME":"4555.00",
"POORLAT":null,
"POORLON":null
},
{
"FAMILY_ID":"100000113392647",
"HOUSEHOLDERNAME":"上建兴",
"COUNT":5,
"INCOME":"4077.89",
"POORLAT":34.4319833231311,
"POORLON":108.304621641272
},
{
"FAMILY_ID":"100000113406014",
"HOUSEHOLDERNAME":"朱永祥",
"COUNT":6,
"INCOME":"3172.13",
"POORLAT":34.21865,
"POORLON":108.28019
},
{
"FAMILY_ID":"100000113408166",
"HOUSEHOLDERNAME":"赵乃卫",
"COUNT":1,
"INCOME":"4581.00",
"POORLAT":34.232582,
"POORLON":108.26396
},
{
"FAMILY_ID":"100000113409631",
"HOUSEHOLDERNAME":"田玉兰",
"COUNT":2,
"INCOME":"3000.00",
"POORLAT":34.450016,
"POORLON":108.352234
},
{
"FAMILY_ID":"100000113413049",
"HOUSEHOLDERNAME":"赵小明",
"COUNT":6,
"INCOME":"1646.54",
"POORLAT":34.545208,
"POORLON":108.456635
},
{
"FAMILY_ID":"100000113442367",
"HOUSEHOLDERNAME":"魏会玲",
"COUNT":1,
"INCOME":"3810.00",
"POORLAT":34.37645,
"POORLON":108.20605
},
{
"FAMILY_ID":"100000113454133",
"HOUSEHOLDERNAME":"段小元",
"COUNT":1,
"INCOME":"1260.20",
"POORLAT":null,
"POORLON":null
},
{
"FAMILY_ID":"100000113461556",
"HOUSEHOLDERNAME":"刘创社",
"COUNT":6,
"INCOME":"3356.40",
"POORLAT":34.325494884021,
"POORLON":108.179217725956
},
{
"FAMILY_ID":"100000113461804",
"HOUSEHOLDERNAME":"谌坐世",
"COUNT":2,
"INCOME":"2901.50",
"POORLAT":34.21865,
"POORLON":108.28107
},
{
"FAMILY_ID":"100000113462649",
"HOUSEHOLDERNAME":"段小平",
"COUNT":8,
"INCOME":"2966.75",
"POORLAT":null,
"POORLON":null
},
{
"FAMILY_ID":"100000113528791",
"HOUSEHOLDERNAME":"李淑琴",
"COUNT":4,
"INCOME":"3665.32",
"POORLAT":34.2483436918566,
"POORLON":108.248231829951
},
{
"FAMILY_ID":"100000113573623",
"HOUSEHOLDERNAME":"杜作应",
"COUNT":2,
"INCOME":"1539.50",
"POORLAT":null,
"POORLON":null
},
{
"FAMILY_ID":"100000113595590",
"HOUSEHOLDERNAME":"席永贵",
"COUNT":1,
"INCOME":"3479.00",
"POORLAT":34.6273250579834,
"POORLON":108.526425361633
},
{
"FAMILY_ID":"100000113597471",
"HOUSEHOLDERNAME":"宋金芳",
"COUNT":4,
"INCOME":"3377.00",
"POORLAT":34.322933,
"POORLON":108.42826
},
{
"FAMILY_ID":"100000113608140",
"HOUSEHOLDERNAME":"梁淑凤",
"COUNT":2,
"INCOME":"4465.00",
"POORLAT":34.643337,
"POORLON":108.791145
},
{
"FAMILY_ID":"100000113637190",
"HOUSEHOLDERNAME":"韩撵会",
"COUNT":5,
"INCOME":"3828.54",
"POORLAT":34.21725,
"POORLON":108.28743
},
{
"FAMILY_ID":"100000113645047",
"HOUSEHOLDERNAME":"周广林",
"COUNT":3,
"INCOME":"4031.40",
"POORLAT":34.56793,
"POORLON":108.786095
},
{
"FAMILY_ID":"100000113646790",
"HOUSEHOLDERNAME":"刘志友",
"COUNT":2,
"INCOME":"1598.00",
"POORLAT":null,
"POORLON":null
},
{
"FAMILY_ID":"100000113668894",
"HOUSEHOLDERNAME":"习美亮",
"COUNT":8,
"INCOME":"4621.50",
"POORLAT":34.392155,
"POORLON":108.230934
},
{
"FAMILY_ID":"100000113681548",
"HOUSEHOLDERNAME":"刘建兵",
"COUNT":2,
"INCOME":"4372.00",
"POORLAT":34.328437352136,
"POORLON":108.180639079448
},
{
"FAMILY_ID":"100000113724127",
"HOUSEHOLDERNAME":"徐双选",
"COUNT":9,
"INCOME":"4000.33",
"POORLAT":34.309093,
"POORLON":108.43902
},
{
"FAMILY_ID":"100000113736245",
"HOUSEHOLDERNAME":"韩养会",
"COUNT":10,
"INCOME":"4627.68",
"POORLAT":34.21723,
"POORLON":108.287315
},
{
"FAMILY_ID":"100000113770458",
"HOUSEHOLDERNAME":"昝生金",
"COUNT":4,
"INCOME":"4925.20",
"POORLAT":34.567795,
"POORLON":108.78618
},
{
"FAMILY_ID":"100000113817004",
"HOUSEHOLDERNAME":"畅勋国",
"COUNT":4,
"INCOME":"3359.00",
"POORLAT":34.387466,
"POORLON":108.1653
},
{
"FAMILY_ID":"100000113830348",
"HOUSEHOLDERNAME":"时林郎",
"COUNT":3,
"INCOME":"2748.33",
"POORLAT":34.532707,
"POORLON":108.47187
},
{
"FAMILY_ID":"100000113837528",
"HOUSEHOLDERNAME":"张帮后",
"COUNT":6,
"INCOME":"3656.90",
"POORLAT":34.21725,
"POORLON":108.28743
},
{
"FAMILY_ID":"100000113875020",
"HOUSEHOLDERNAME":"李龙江",
"COUNT":2,
"INCOME":"4058.50",
"POORLAT":34.53791,
"POORLON":108.45733
},
{
"FAMILY_ID":"100000113884027",
"HOUSEHOLDERNAME":"刘方联",
"COUNT":3,
"INCOME":"2580.00",
"POORLAT":null,
"POORLON":null
},
{
"FAMILY_ID":"100000113891316",
"HOUSEHOLDERNAME":"韩创娃",
"COUNT":2,
"INCOME":"3030.10",
"POORLAT":34.21723,
"POORLON":108.28747
},
{
"FAMILY_ID":"100000113899501",
"HOUSEHOLDERNAME":"杨金花",
"COUNT":6,
"INCOME":"3027.00",
"POORLAT":34.232243,
"POORLON":108.19094
},
{
"FAMILY_ID":"100000113902575",
"HOUSEHOLDERNAME":"畅育国",
"COUNT":6,
"INCOME":"4005.33",
"POORLAT":34.37715,
"POORLON":108.18585
},
{
"FAMILY_ID":"100000113904681",
"HOUSEHOLDERNAME":"周群虎",
"COUNT":4,
"INCOME":"1722.50",
"POORLAT":34.368095,
"POORLON":108.33131
},
{
"FAMILY_ID":"100000113905558",
"HOUSEHOLDERNAME":"董桂珍",
"COUNT":1,
"INCOME":"3565.00",
"POORLAT":34.391518,
"POORLON":108.08861
},
{
"FAMILY_ID":"100000113913557",
"HOUSEHOLDERNAME":"王玉芳",
"COUNT":1,
"INCOME":"3098.00",
"POORLAT":34.4860572814941,
"POORLON":108.605804443359
},
{
"FAMILY_ID":"100000113928945",
"HOUSEHOLDERNAME":"田玉元",
"COUNT":1,
"INCOME":"2838.27",
"POORLAT":34.6707348479228,
"POORLON":108.868908148618
},
{
"FAMILY_ID":"100000113942781",
"HOUSEHOLDERNAME":"牛凤芹",
"COUNT":3,
"INCOME":"3542.00",
"POORLAT":34.23285,
"POORLON":108.19285
},
{
"FAMILY_ID":"100000113961137",
"HOUSEHOLDERNAME":"王来运",
"COUNT":1,
"INCOME":"3932.00",
"POORLAT":34.826748,
"POORLON":108.93065
},
{
"FAMILY_ID":"100000113965634",
"HOUSEHOLDERNAME":"李勤友",
"COUNT":1,
"INCOME":"4885.00",
"POORLAT":34.391518,
"POORLON":108.08861
},
{
"FAMILY_ID":"100000113967712",
"HOUSEHOLDERNAME":"王凤兰",
"COUNT":2,
"INCOME":"4836.50",
"POORLAT":null,
"POORLON":null
},
{
"FAMILY_ID":"100000113978376",
"HOUSEHOLDERNAME":"白顶连",
"COUNT":1,
"INCOME":"2314.00",
"POORLAT":34.4818863868713,
"POORLON":108.604034423828
},
{
"FAMILY_ID":"100000113995076",
"HOUSEHOLDERNAME":"李爱芹",
"COUNT":3,
"INCOME":"4741.60",
"POORLAT":34.2466347694397,
"POORLON":108.342171859741
},
{
"FAMILY_ID":"100000113995305",
"HOUSEHOLDERNAME":"王朋国",
"COUNT":3,
"INCOME":"2815.83",
"POORLAT":34.3084893835249,
"POORLON":108.121575626856
},
{
"FAMILY_ID":"100000114007057",
"HOUSEHOLDERNAME":"王产峰",
"COUNT":2,
"INCOME":"4472.00",
"POORLAT":34.3757209777832,
"POORLON":108.186660766602
},
{
"FAMILY_ID":"100000114024529",
"HOUSEHOLDERNAME":"冯玉桂",
"COUNT":4,
"INCOME":"3490.40",
"POORLAT":34.217247,
"POORLON":108.286064
},
{
"FAMILY_ID":"100000114034589",
"HOUSEHOLDERNAME":"黄选会",
"COUNT":2,
"INCOME":"3159.00",
"POORLAT":34.22914,
"POORLON":108.26469
},
{
"FAMILY_ID":"100000114045759",
"HOUSEHOLDERNAME":"田升座",
"COUNT":10,
"INCOME":"3797.70",
"POORLAT":34.309147,
"POORLON":108.42862
},
{
"FAMILY_ID":"100000114052637",
"HOUSEHOLDERNAME":"耿银银",
"COUNT":4,
"INCOME":"2880.00",
"POORLAT":34.2534510846558,
"POORLON":108.212289830688
},
{
"FAMILY_ID":"100000114057487",
"HOUSEHOLDERNAME":"黄坐良",
"COUNT":1,
"INCOME":"4685.30",
"POORLAT":null,
"POORLON":null
},
{
"FAMILY_ID":"100000114060129",
"HOUSEHOLDERNAME":"康一峰",
"COUNT":4,
"INCOME":"2555.00",
"POORLAT":34.219284,
"POORLON":108.3005
},
{
"FAMILY_ID":"100000114088287",
"HOUSEHOLDERNAME":"郑春亮",
"COUNT":2,
"INCOME":"2282.88",
"POORLAT":34.237225,
"POORLON":108.27813
},
{
"FAMILY_ID":"100000114092477",
"HOUSEHOLDERNAME":"叶爱琴",
"COUNT":28,
"INCOME":"1897.29",
"POORLAT":34.644012,
"POORLON":108.78544
},
{
"FAMILY_ID":"100000114093340",
"HOUSEHOLDERNAME":"任建德",
"COUNT":6,
"INCOME":"2884.67",
"POORLAT":34.394104,
"POORLON":108.16769
},
{
"FAMILY_ID":"100000114094587",
"HOUSEHOLDERNAME":"陈社会",
"COUNT":1,
"INCOME":"3257.40",
"POORLAT":34.21909,
"POORLON":108.30235
},
{
"FAMILY_ID":"100000114099791",
"HOUSEHOLDERNAME":"李高站",
"COUNT":6,
"INCOME":"3451.50",
"POORLAT":34.232246,
"POORLON":108.19107
},
{
"FAMILY_ID":"100000114121949",
"HOUSEHOLDERNAME":"李卫军",
"COUNT":6,
"INCOME":"2962.00",
"POORLAT":34.217926,
"POORLON":108.294624
},
{
"FAMILY_ID":"100000114129836",
"HOUSEHOLDERNAME":"郑焕成",
"COUNT":1,
"INCOME":"965.00",
"POORLAT":34.321392,
"POORLON":108.121864
},
{
"FAMILY_ID":"100000114140159",
"HOUSEHOLDERNAME":"王建伟",
"COUNT":4,
"INCOME":"2526.50",
"POORLAT":34.38905,
"POORLON":108.225815
},
{
"FAMILY_ID":"100000114149474",
"HOUSEHOLDERNAME":"李百忍",
"COUNT":9,
"INCOME":"3957.67",
"POORLAT":null,
"POORLON":null
},
{
"FAMILY_ID":"100000114159120",
"HOUSEHOLDERNAME":"田小平",
"COUNT":6,
"INCOME":"4031.00",
"POORLAT":34.2647642561176,
"POORLON":108.358390328821
},
{
"FAMILY_ID":"100000114165539",
"HOUSEHOLDERNAME":"袁卫厂",
"COUNT":1,
"INCOME":"4009.00",
"POORLAT":34.310352,
"POORLON":108.12322
},
{
"FAMILY_ID":"100000114176195",
"HOUSEHOLDERNAME":"卓宏轩",
"COUNT":9,
"INCOME":"4589.33",
"POORLAT":34.2536139067459,
"POORLON":108.210501457672
},
{
"FAMILY_ID":"100000114189930",
"HOUSEHOLDERNAME":"任鹰昀",
"COUNT":6,
"INCOME":"4770.00",
"POORLAT":34.393253,
"POORLON":108.16863
},
{
"FAMILY_ID":"100000114189972",
"HOUSEHOLDERNAME":"许桂贤",
"COUNT":6,
"INCOME":"4752.69",
"POORLAT":34.2465811252594,
"POORLON":108.3433198452
},
{
"FAMILY_ID":"100000114197730",
"HOUSEHOLDERNAME":"李会锋",
"COUNT":2,
"INCOME":"2238.07",
"POORLAT":null,
"POORLON":null
},
{
"FAMILY_ID":"100000114234272",
"HOUSEHOLDERNAME":"牛竞",
"COUNT":2,
"INCOME":"3340.00",
"POORLAT":34.6075401473665,
"POORLON":108.922336674093
},
{
"FAMILY_ID":"100000114236526",
"HOUSEHOLDERNAME":"习小斌",
"COUNT":3,
"INCOME":"4826.67",
"POORLAT":34.3781107785421,
"POORLON":108.193271159429
},
{
"FAMILY_ID":"100000114239509",
"HOUSEHOLDERNAME":"丁银菊",
"COUNT":4,
"INCOME":"4916.00",
"POORLAT":34.218014,
"POORLON":108.29522
},
{
"FAMILY_ID":"100000114256782",
"HOUSEHOLDERNAME":"穆耐雄",
"COUNT":4,
"INCOME":"3820.00",
"POORLAT":34.25305,
"POORLON":108.20805
},
{
"FAMILY_ID":"100000114269234",
"HOUSEHOLDERNAME":"韩亚芳",
"COUNT":3,
"INCOME":"3092.33",
"POORLAT":null,
"POORLON":null
},
{
"FAMILY_ID":"100000114279900",
"HOUSEHOLDERNAME":"刘志莲",
"COUNT":2,
"INCOME":"4957.20",
"POORLAT":34.825756,
"POORLON":108.93143
},
{
"FAMILY_ID":"100000114289985",
"HOUSEHOLDERNAME":"郭会芹",
"COUNT":12,
"INCOME":"4314.13",
"POORLAT":34.312653,
"POORLON":108.4394
},
{
"FAMILY_ID":"100000114294185",
"HOUSEHOLDERNAME":"畅育崇",
"COUNT":6,
"INCOME":"4710.33",
"POORLAT":34.3763277701745,
"POORLON":108.193692442402
},
{
"FAMILY_ID":"100000114317945",
"HOUSEHOLDERNAME":"薛仓库",
"COUNT":6,
"INCOME":"4542.67",
"POORLAT":34.219864,
"POORLON":108.27338
},
{
"FAMILY_ID":"100000114347920",
"HOUSEHOLDERNAME":"任秀芳",
"COUNT":12,
"INCOME":"4277.13",
"POORLAT":34.3764506578445,
"POORLON":108.186512827873
},
{
"FAMILY_ID":"100000114358568",
"HOUSEHOLDERNAME":"白顶吉",
"COUNT":4,
"INCOME":"1312.00",
"POORLAT":34.48285,
"POORLON":108.605065364418
},
{
"FAMILY_ID":"100000114362930",
"HOUSEHOLDERNAME":"徐政斌",
"COUNT":12,
"INCOME":"4241.50",
"POORLAT":34.31425,
"POORLON":108.439
},
{
"FAMILY_ID":"100000114363461",
"HOUSEHOLDERNAME":"李念娃",
"COUNT":3,
"INCOME":"3321.50",
"POORLAT":34.217323,
"POORLON":108.29737
},
{
"FAMILY_ID":"100000114365641",
"HOUSEHOLDERNAME":"韩俊峰",
"COUNT":5,
"INCOME":"2665.80",
"POORLAT":34.2454890918136,
"POORLON":108.247598276351
},
{
"FAMILY_ID":"100000114394021",
"HOUSEHOLDERNAME":"袁治安",
"COUNT":6,
"INCOME":"3666.33",
"POORLAT":null,
"POORLON":null
},
{
"FAMILY_ID":"100000114401986",
"HOUSEHOLDERNAME":"刘胜军",
"COUNT":5,
"INCOME":"4582.80",
"POORLAT":34.303795,
"POORLON":108.31437
},
{
"FAMILY_ID":"100000114403720",
"HOUSEHOLDERNAME":"刘旭辉",
"COUNT":15,
"INCOME":"4020.00",
"POORLAT":34.3765068054199,
"POORLON":108.186454772949
},
{
"FAMILY_ID":"100000114418772",
"HOUSEHOLDERNAME":"娄桂英",
"COUNT":2,
"INCOME":"1481.00",
"POORLAT":34.4103889465332,
"POORLON":108.18920135498
},
{
"FAMILY_ID":"100000114420432",
"HOUSEHOLDERNAME":"张收民",
"COUNT":3,
"INCOME":"4823.00",
"POORLAT":34.2246695152664,
"POORLON":108.338173335698
},
{
"FAMILY_ID":"100000114425298",
"HOUSEHOLDERNAME":"李党国",
"COUNT":6,
"INCOME":"4323.67",
"POORLAT":34.22343,
"POORLON":108.28185
},
{
"FAMILY_ID":"100000114434761",
"HOUSEHOLDERNAME":"杨小侠",
"COUNT":12,
"INCOME":"2140.00",
"POORLAT":34.2534700846558,
"POORLON":108.208830932541
},
{
"FAMILY_ID":"100000114448975",
"HOUSEHOLDERNAME":"梁跟成",
"COUNT":3,
"INCOME":"3010.00",
"POORLAT":34.6679354955539,
"POORLON":108.867573010811
},
{
"FAMILY_ID":"100000114449879",
"HOUSEHOLDERNAME":"井秀梅",
"COUNT":6,
"INCOME":"2966.67",
"POORLAT":34.5212551951408,
"POORLON":108.260046601295
},
{
"FAMILY_ID":"100000114479139",
"HOUSEHOLDERNAME":"韩占业",
"COUNT":4,
"INCOME":"2089.00",
"POORLAT":34.21985,
"POORLON":108.27225
},
{
"FAMILY_ID":"100000114486241",
"HOUSEHOLDERNAME":"石胜琪",
"COUNT":2,
"INCOME":"3102.00",
"POORLAT":null,
"POORLON":null
},
{
"FAMILY_ID":"100000114526930",
"HOUSEHOLDERNAME":"徐秀云",
"COUNT":8,
"INCOME":"826.00",
"POORLAT":34.686417,
"POORLON":108.87476
},
{
"FAMILY_ID":"100000114527143",
"HOUSEHOLDERNAME":"李桂彦",
"COUNT":2,
"INCOME":"2366.00",
"POORLAT":null,
"POORLON":null
},
{
"FAMILY_ID":"100000114528183",
"HOUSEHOLDERNAME":"白文刚",
"COUNT":6,
"INCOME":"2981.67",
"POORLAT":null,
"POORLON":null
},
{
"FAMILY_ID":"100000114553325",
"HOUSEHOLDERNAME":"穆凯",
"COUNT":18,
"INCOME":"4116.67",
"POORLAT":34.2536184576721,
"POORLON":108.211452390213
},
{
"FAMILY_ID":"100000114566440",
"HOUSEHOLDERNAME":"宋永国",
"COUNT":1,
"INCOME":"4462.00",
"POORLAT":34.2992093451787,
"POORLON":108.203450835552
},
{
"FAMILY_ID":"100000114589154",
"HOUSEHOLDERNAME":"刘建成",
"COUNT":6,
"INCOME":"4473.50",
"POORLAT":null,
"POORLON":null
},
{
"FAMILY_ID":"100000114599777",
"HOUSEHOLDERNAME":"薛梅玲",
"COUNT":2,
"INCOME":"3812.00",
"POORLAT":null,
"POORLON":null
},
{
"FAMILY_ID":"100000114603488",
"HOUSEHOLDERNAME":"罗振禄",
"COUNT":2,
"INCOME":"3380.00",
"POORLAT":34.228584446701,
"POORLON":108.315683952202
},
{
"FAMILY_ID":"100000114605591",
"HOUSEHOLDERNAME":"周岁社",
"COUNT":2,
"INCOME":"2966.00",
"POORLAT":34.686417,
"POORLON":108.87476
},
{
"FAMILY_ID":"100000114612376",
"HOUSEHOLDERNAME":"李逢远",
"COUNT":3,
"INCOME":"4967.00",
"POORLAT":34.23369,
"POORLON":108.1922
},
{
"FAMILY_ID":"100000114614579",
"HOUSEHOLDERNAME":"李永光",
"COUNT":3,
"INCOME":"2997.33",
"POORLAT":null,
"POORLON":null
},
{
"FAMILY_ID":"100000114619520",
"HOUSEHOLDERNAME":"张初去",
"COUNT":3,
"INCOME":"3140.00",
"POORLAT":34.2646571864933,
"POORLON":108.359638010501
},
{
"FAMILY_ID":"100000114621010",
"HOUSEHOLDERNAME":"宋重良",
"COUNT":5,
"INCOME":"3183.20",
"POORLAT":34.2998622497598,
"POORLON":108.203564103057
},
{
"FAMILY_ID":"100000114629901",
"HOUSEHOLDERNAME":"李党国",
"COUNT":2,
"INCOME":"3409.00",
"POORLAT":34.3836595906098,
"POORLON":108.19210536141
},
{
"FAMILY_ID":"100000114641196",
"HOUSEHOLDERNAME":"马争春",
"COUNT":3,
"INCOME":"3948.00",
"POORLAT":34.37824,
"POORLON":108.20265
},
{
"FAMILY_ID":"100000114646200",
"HOUSEHOLDERNAME":"马琳娜",
"COUNT":4,
"INCOME":"3119.50",
"POORLAT":34.4105110168457,
"POORLON":108.188423156738
},
{
"FAMILY_ID":"100000114663480",
"HOUSEHOLDERNAME":"侯长发",
"COUNT":1,
"INCOME":"1720.00",
"POORLAT":34.6106,
"POORLON":108.925934
},
{
"FAMILY_ID":"100000114685659",
"HOUSEHOLDERNAME":"马卫国",
"COUNT":8,
"INCOME":"4249.43",
"POORLAT":34.3764588832855,
"POORLON":108.186524510384
},
{
"FAMILY_ID":"100000114686868",
"HOUSEHOLDERNAME":"徐政武",
"COUNT":18,
"INCOME":"4126.67",
"POORLAT":34.312847,
"POORLON":108.43751
},
{
"FAMILY_ID":"100000114698495",
"HOUSEHOLDERNAME":"孟秦川",
"COUNT":6,
"INCOME":"4875.50",
"POORLAT":34.3147133176289,
"POORLON":108.436967284502
},
{
"FAMILY_ID":"100000114700796",
"HOUSEHOLDERNAME":"卓巧飞",
"COUNT":6,
"INCOME":"3000.00",
"POORLAT":34.2522517202377,
"POORLON":108.208030787697
},
{
"FAMILY_ID":"100000114718687",
"HOUSEHOLDERNAME":"孙秀芹",
"COUNT":3,
"INCOME":"3697.00",
"POORLAT":null,
"POORLON":null
},
{
"FAMILY_ID":"100000114722864",
"HOUSEHOLDERNAME":"胡长全",
"COUNT":2,
"INCOME":"2963.94",
"POORLAT":null,
"POORLON":null
},
{
"FAMILY_ID":"100000114734388",
"HOUSEHOLDERNAME":"焦亚战",
"COUNT":3,
"INCOME":"4112.13",
"POORLAT":34.5808111906052,
"POORLON":108.555788350105
},
{
"FAMILY_ID":"100000114735766",
"HOUSEHOLDERNAME":"胡彩兰",
"COUNT":6,
"INCOME":"2260.50",
"POORLAT":34.37192,
"POORLON":108.32854
},
{
"FAMILY_ID":"100000114738174",
"HOUSEHOLDERNAME":"冯耀辉",
"COUNT":14,
"INCOME":"4964.29",
"POORLAT":34.21351,
"POORLON":108.269806
},
{
"FAMILY_ID":"100000114779623",
"HOUSEHOLDERNAME":"石靠社",
"COUNT":6,
"INCOME":"3755.00",
"POORLAT":34.6351606845856,
"POORLON":108.049914360046
},
{
"FAMILY_ID":"100000114779831",
"HOUSEHOLDERNAME":"李永长",
"COUNT":6,
"INCOME":"2383.50",
"POORLAT":34.5994859365306,
"POORLON":108.853861951118
},
{
"FAMILY_ID":"100000114782966",
"HOUSEHOLDERNAME":"贾榜卫",
"COUNT":4,
"INCOME":"3094.50",
"POORLAT":34.284657,
"POORLON":108.301506
},
{
"FAMILY_ID":"100000114785301",
"HOUSEHOLDERNAME":"邵文波",
"COUNT":3,
"INCOME":"3504.67",
"POORLAT":34.29505,
"POORLON":108.1611
},
{
"FAMILY_ID":"100000114817475",
"HOUSEHOLDERNAME":"宋建平",
"COUNT":2,
"INCOME":"4424.90",
"POORLAT":34.2991453191578,
"POORLON":108.200139403662
},
{
"FAMILY_ID":"100000114818617",
"HOUSEHOLDERNAME":"兰金楼",
"COUNT":4,
"INCOME":"1601.50",
"POORLAT":34.59934,
"POORLON":108.853615
},
{
"FAMILY_ID":"100000114827658",
"HOUSEHOLDERNAME":"耿群英",
"COUNT":2,
"INCOME":"4028.00",
"POORLAT":null,
"POORLON":null
},
{
"FAMILY_ID":"100000114833790",
"HOUSEHOLDERNAME":"李方育",
"COUNT":4,
"INCOME":"2799.25",
"POORLAT":34.3833007287927,
"POORLON":108.189675257571
},
{
"FAMILY_ID":"100000114844995",
"HOUSEHOLDERNAME":"刘党团",
"COUNT":6,
"INCOME":"4482.86",
"POORLAT":null,
"POORLON":null
},
{
"FAMILY_ID":"100000114850354",
"HOUSEHOLDERNAME":"李柯柯",
"COUNT":3,
"INCOME":"3731.67",
"POORLAT":34.294987,
"POORLON":108.159706
},
{
"FAMILY_ID":"100000114852952",
"HOUSEHOLDERNAME":"贾润润",
"COUNT":4,
"INCOME":"2091.80",
"POORLAT":34.3654019943103,
"POORLON":108.133729771436
},
{
"FAMILY_ID":"100000114862012",
"HOUSEHOLDERNAME":"史晓英",
"COUNT":4,
"INCOME":"4794.80",
"POORLAT":null,
"POORLON":null
},
{
"FAMILY_ID":"100000114883578",
"HOUSEHOLDERNAME":"贾开民",
"COUNT":4,
"INCOME":"2824.90",
"POORLAT":34.2571341379726,
"POORLON":108.31536371287
},
{
"FAMILY_ID":"100000114891474",
"HOUSEHOLDERNAME":"岳永文",
"COUNT":8,
"INCOME":"2375.00",
"POORLAT":34.686417,
"POORLON":108.87476
},
{
"FAMILY_ID":"100000114903009",
"HOUSEHOLDERNAME":"刘小娃",
"COUNT":6,
"INCOME":"3475.00",
"POORLAT":null,
"POORLON":null
},
{
"FAMILY_ID":"100000114919096",
"HOUSEHOLDERNAME":"胡素利",
"COUNT":2,
"INCOME":"2801.10",
"POORLAT":null,
"POORLON":null
},
{
"FAMILY_ID":"100000114927734",
"HOUSEHOLDERNAME":"张超产",
"COUNT":6,
"INCOME":"3800.00",
"POORLAT":34.2655962434417,
"POORLON":108.359660489844
},
{
"FAMILY_ID":"100000114946467",
"HOUSEHOLDERNAME":"巩双库",
"COUNT":2,
"INCOME":"2480.00",
"POORLAT":34.5812349796295,
"POORLON":108.528360080719
},
{
"FAMILY_ID":"100000114954303",
"HOUSEHOLDERNAME":"田联卫",
"COUNT":2,
"INCOME":"3120.00",
"POORLAT":34.322926,
"POORLON":108.427925
},
{
"FAMILY_ID":"100000114957356",
"HOUSEHOLDERNAME":"任小明",
"COUNT":4,
"INCOME":"4425.00",
"POORLAT":34.3937,
"POORLON":108.16704
},
{
"FAMILY_ID":"100000114959100",
"HOUSEHOLDERNAME":"柳书荣",
"COUNT":5,
"INCOME":"4820.40",
"POORLAT":34.6163,
"POORLON":108.9235
},
{
"FAMILY_ID":"100000114959400",
"HOUSEHOLDERNAME":"田明县",
"COUNT":5,
"INCOME":"2907.40",
"POORLAT":34.303795,
"POORLON":108.31437
},
{
"FAMILY_ID":"100000114989203",
"HOUSEHOLDERNAME":"何平均",
"COUNT":4,
"INCOME":"3771.00",
"POORLAT":34.65842,
"POORLON":109.130806
},
{
"FAMILY_ID":"100000115000229",
"HOUSEHOLDERNAME":"何广林",
"COUNT":3,
"INCOME":"4328.50",
"POORLAT":34.6320804974825,
"POORLON":108.080207215118
},
{
"FAMILY_ID":"100000115019168",
"HOUSEHOLDERNAME":"余贵珍",
"COUNT":2,
"INCOME":"2338.50",
"POORLAT":34.303795,
"POORLON":108.31437
},
{
"FAMILY_ID":"100000115023075",
"HOUSEHOLDERNAME":"陈大伟",
"COUNT":9,
"INCOME":"1333.33",
"POORLAT":34.232487,
"POORLON":108.18532
},
{
"FAMILY_ID":"100000115039845",
"HOUSEHOLDERNAME":"贾治武",
"COUNT":2,
"INCOME":"3720.00",
"POORLAT":34.2549603462219,
"POORLON":108.314426104458
},
{
"FAMILY_ID":"100000115041936",
"HOUSEHOLDERNAME":"刘欢",
"COUNT":2,
"INCOME":"3000.00",
"POORLAT":34.7854905605316,
"POORLON":108.379846167564
},
{
"FAMILY_ID":"100000115060751",
"HOUSEHOLDERNAME":"李建财",
"COUNT":4,
"INCOME":"2850.00",
"POORLAT":34.3162825107574,
"POORLON":108.294582843781
},
{
"FAMILY_ID":"100000115074413",
"HOUSEHOLDERNAME":"赵岁民",
"COUNT":6,
"INCOME":"2811.75",
"POORLAT":34.2345503558197,
"POORLON":108.207536991402
},
{
"FAMILY_ID":"100000115082038",
"HOUSEHOLDERNAME":"王俊乾",
"COUNT":6,
"INCOME":"2961.33",
"POORLAT":34.6557815670967,
"POORLON":108.056510865688
},
{
"FAMILY_ID":"100000115106278",
"HOUSEHOLDERNAME":"陈撑道",
"COUNT":1,
"INCOME":"2730.10",
"POORLAT":34.220207,
"POORLON":108.30255
},
{
"FAMILY_ID":"100000115112173",
"HOUSEHOLDERNAME":"王东",
"COUNT":10,
"INCOME":"3589.60",
"POORLAT":34.653717,
"POORLON":109.11394
},
{
"FAMILY_ID":"100000115118535",
"HOUSEHOLDERNAME":"李新会",
"COUNT":6,
"INCOME":"2720.95",
"POORLAT":34.3165009021759,
"POORLON":108.293343663216
},
{
"FAMILY_ID":"100000115130806",
"HOUSEHOLDERNAME":"豆双永",
"COUNT":3,
"INCOME":"2666.67",
"POORLAT":34.7845303297043,
"POORLON":108.382780504227
},
{
"FAMILY_ID":"100000115134095",
"HOUSEHOLDERNAME":"邢宏儒",
"COUNT":4,
"INCOME":"3507.75",
"POORLAT":34.6319372090577,
"POORLON":108.078118795452
},
{
"FAMILY_ID":"100000115144624",
"HOUSEHOLDERNAME":"陶俊民",
"COUNT":6,
"INCOME":"2990.93",
"POORLAT":null,
"POORLON":null
},
{
"FAMILY_ID":"100000115149775",
"HOUSEHOLDERNAME":"李丹",
"COUNT":2,
"INCOME":"4987.50",
"POORLAT":34.376163,
"POORLON":108.20303
},
{
"FAMILY_ID":"100000115178130",
"HOUSEHOLDERNAME":"张桂莲",
"COUNT":3,
"INCOME":"3200.00",
"POORLAT":34.3096495354328,
"POORLON":108.429744334814
},
{
"FAMILY_ID":"100000115187833",
"HOUSEHOLDERNAME":"李琴",
"COUNT":6,
"INCOME":"3005.67",
"POORLAT":null,
"POORLON":null
},
{
"FAMILY_ID":"100000115215375",
"HOUSEHOLDERNAME":"畅妮妮",
"COUNT":6,
"INCOME":"4840.00",
"POORLAT":null,
"POORLON":null
},
{
"FAMILY_ID":"100000115220073",
"HOUSEHOLDERNAME":"季吉超",
"COUNT":4,
"INCOME":"4425.00",
"POORLAT":34.5841210365295,
"POORLON":108.559527349472
},
{
"FAMILY_ID":"100000115233661",
"HOUSEHOLDERNAME":"巩凤荣",
"COUNT":3,
"INCOME":"2566.67",
"POORLAT":34.7859572649002,
"POORLON":108.383767557144
},
{
"FAMILY_ID":"100000115235262",
"HOUSEHOLDERNAME":"赵建信",
"COUNT":10,
"INCOME":"4507.52",
"POORLAT":34.6065289449121,
"POORLON":108.917543391717
},
{
"FAMILY_ID":"100000115246867",
"HOUSEHOLDERNAME":"齐战荣",
"COUNT":6,
"INCOME":"2764.00",
"POORLAT":null,
"POORLON":null
},
{
"FAMILY_ID":"100000115248881",
"HOUSEHOLDERNAME":"宋中信",
"COUNT":3,
"INCOME":"3028.00",
"POORLAT":34.6742769986725,
"POORLON":108.04259440937
},
{
"FAMILY_ID":"100000115251885",
"HOUSEHOLDERNAME":"王会云",
"COUNT":6,
"INCOME":"3778.00",
"POORLAT":34.3561518692026,
"POORLON":108.202253459118
},
{
"FAMILY_ID":"100000115273953",
"HOUSEHOLDERNAME":"巩彦虎",
"COUNT":2,
"INCOME":"4927.96",
"POORLAT":34.7859465360641,
"POORLON":108.382190418243
},
{
"FAMILY_ID":"100000115274741",
"HOUSEHOLDERNAME":"刘遵社",
"COUNT":6,
"INCOME":"1897.50",
"POORLAT":34.2282763719559,
"POORLON":108.209301948547
},
{
"FAMILY_ID":"100000115280955",
"HOUSEHOLDERNAME":"郑超",
"COUNT":12,
"INCOME":"2486.67",
"POORLAT":null,
"POORLON":null
},
{
"FAMILY_ID":"100000115285043",
"HOUSEHOLDERNAME":"王桂侠",
"COUNT":9,
"INCOME":"2205.23",
"POORLAT":34.5831554412842,
"POORLON":108.826970410347
},
{
"FAMILY_ID":"100000115301220",
"HOUSEHOLDERNAME":"史云中",
"COUNT":12,
"INCOME":"4370.00",
"POORLAT":34.373997,
"POORLON":108.208
},
{
"FAMILY_ID":"100000115307213",
"HOUSEHOLDERNAME":"王正",
"COUNT":9,
"INCOME":"3247.33",
"POORLAT":34.2494470032366,
"POORLON":108.315029304884
},
{
"FAMILY_ID":"100000115307772",
"HOUSEHOLDERNAME":"史建称",
"COUNT":4,
"INCOME":"2808.00",
"POORLAT":34.2548898838434,
"POORLON":108.188344622543
},
{
"FAMILY_ID":"100000115319004",
"HOUSEHOLDERNAME":"鹿卫权",
"COUNT":4,
"INCOME":"2866.75",
"POORLAT":34.5791538474909,
"POORLON":108.553018730058
},
{
"FAMILY_ID":"100000115339081",
"HOUSEHOLDERNAME":"李丙辉",
"COUNT":6,
"INCOME":"3217.83",
"POORLAT":34.384094,
"POORLON":108.189354
},
{
"FAMILY_ID":"100000115348174",
"HOUSEHOLDERNAME":"吴俊辉",
"COUNT":10,
"INCOME":"3721.28",
"POORLAT":34.3725002681861,
"POORLON":108.179004519964
},
{
"FAMILY_ID":"100000115352257",
"HOUSEHOLDERNAME":"董新莉",
"COUNT":9,
"INCOME":"4687.33",
"POORLAT":34.2318130731583,
"POORLON":108.201452970505
},
{
"FAMILY_ID":"100000115359407",
"HOUSEHOLDERNAME":"梁创建",
"COUNT":12,
"INCOME":"4693.63",
"POORLAT":34.3758775414636,
"POORLON":108.184413826365
},
{
"FAMILY_ID":"100000115371397",
"HOUSEHOLDERNAME":"高瑛",
"COUNT":16,
"INCOME":"4899.73",
"POORLAT":34.2319482871853,
"POORLON":108.187666697202
},
{
"FAMILY_ID":"100000115386710",
"HOUSEHOLDERNAME":"刘银行",
"COUNT":4,
"INCOME":"2350.00",
"POORLAT":34.7867136478424,
"POORLON":108.386036705971
},
{
"FAMILY_ID":"100000115388504",
"HOUSEHOLDERNAME":"赵立立",
"COUNT":9,
"INCOME":"4511.67",
"POORLAT":34.2353568077087,
"POORLON":108.208844304085
},
{
"FAMILY_ID":"100000115410582",
"HOUSEHOLDERNAME":"梁孝昌",
"COUNT":2,
"INCOME":"4882.00",
"POORLAT":34.3544496644484,
"POORLON":108.202420083291
},
{
"FAMILY_ID":"100000115442642",
"HOUSEHOLDERNAME":"李棒生",
"COUNT":1,
"INCOME":"4312.00",
"POORLAT":34.38426,
"POORLON":108.19069
},
{
"FAMILY_ID":"100000115450788",
"HOUSEHOLDERNAME":"韩秀娥",
"COUNT":4,
"INCOME":"4270.50",
"POORLAT":34.3749601916282,
"POORLON":108.179188587888
},
{
"FAMILY_ID":"100000115463129",
"HOUSEHOLDERNAME":"杨艳春",
"COUNT":2,
"INCOME":"3180.00",
"POORLAT":34.5848720550537,
"POORLON":108.561670987729
},
{
"FAMILY_ID":"100000115535335",
"HOUSEHOLDERNAME":"司博博",
"COUNT":4,
"INCOME":"4728.40",
"POORLAT":34.38982,
"POORLON":108.21978
},
{
"FAMILY_ID":"100000115541129",
"HOUSEHOLDERNAME":"陈三选",
"COUNT":3,
"INCOME":"2808.27",
"POORLAT":null,
"POORLON":null
},
{
"FAMILY_ID":"100000115563219",
"HOUSEHOLDERNAME":"白天仪",
"COUNT":2,
"INCOME":"2712.50",
"POORLAT":34.6745017790985,
"POORLON":108.043953531075
},
{
"FAMILY_ID":"100000115597530",
"HOUSEHOLDERNAME":"白俊儒",
"COUNT":12,
"INCOME":"4070.67",
"POORLAT":null,
"POORLON":null
},
{
"FAMILY_ID":"100000115606102",
"HOUSEHOLDERNAME":"梁云",
"COUNT":5,
"INCOME":"4661.20",
"POORLAT":34.3785164976871,
"POORLON":108.183613968185
},
{
"FAMILY_ID":"100000115606115",
"HOUSEHOLDERNAME":"白玉忠",
"COUNT":4,
"INCOME":"359.00",
"POORLAT":34.6746515165329,
"POORLON":108.04443784523
},
{
"FAMILY_ID":"100000115629677",
"HOUSEHOLDERNAME":"康会民",
"COUNT":2,
"INCOME":"2730.10",
"POORLAT":34.218575,
"POORLON":108.300545
},
{
"FAMILY_ID":"100000115636800",
"HOUSEHOLDERNAME":"梁晓队",
"COUNT":2,
"INCOME":"4639.00",
"POORLAT":34.3769027188014,
"POORLON":108.18306664374
},
{
"FAMILY_ID":"100000115636984",
"HOUSEHOLDERNAME":"徐争平",
"COUNT":2,
"INCOME":"3025.00",
"POORLAT":34.6479848177363,
"POORLON":108.05612428156
},
{
"FAMILY_ID":"100000115668940",
"HOUSEHOLDERNAME":"刘彦涛",
"COUNT":6,
"INCOME":"1841.00",
"POORLAT":null,
"POORLON":null
},
{
"FAMILY_ID":"100000115677914",
"HOUSEHOLDERNAME":"赵军乾",
"COUNT":3,
"INCOME":"1566.67",
"POORLAT":34.5771396757135,
"POORLON":108.570724988933
},
{
"FAMILY_ID":"100000115716234",
"HOUSEHOLDERNAME":"薛永刚",
"COUNT":3,
"INCOME":"3418.00",
"POORLAT":34.6747541693115,
"POORLON":108.044214463615
},
{
"FAMILY_ID":"100000115718241",
"HOUSEHOLDERNAME":"梁养锋",
"COUNT":12,
"INCOME":"1991.33",
"POORLAT":34.3760841157663,
"POORLON":108.188098878401
},
{
"FAMILY_ID":"100000115748832",
"HOUSEHOLDERNAME":"刘菊香",
"COUNT":6,
"INCOME":"3763.00",
"POORLAT":34.645746588707,
"POORLON":108.055322349072
},
{
"FAMILY_ID":"100000115755492",
"HOUSEHOLDERNAME":"陈联合",
"COUNT":4,
"INCOME":"2241.13",
"POORLAT":34.220303,
"POORLON":108.30249
},
{
"FAMILY_ID":"100000115776432",
"HOUSEHOLDERNAME":"王益民",
"COUNT":3,
"INCOME":"2683.20",
"POORLAT":34.6505130713877,
"POORLON":108.334610193158
},
{
"FAMILY_ID":"100000115779927",
"HOUSEHOLDERNAME":"齐有发",
"COUNT":3,
"INCOME":"4705.00",
"POORLAT":34.6745112857056,
"POORLON":108.043871729469
},
{
"FAMILY_ID":"100000115781879",
"HOUSEHOLDERNAME":"陈茂娃",
"COUNT":4,
"INCOME":"4784.02",
"POORLAT":34.220367,
"POORLON":108.30314
},
{
"FAMILY_ID":"100000115789854",
"HOUSEHOLDERNAME":"赵文选",
"COUNT":3,
"INCOME":"4392.33",
"POORLAT":null,
"POORLON":null
},
{
"FAMILY_ID":"100000115817761",
"HOUSEHOLDERNAME":"张天仁",
"COUNT":2,
"INCOME":"3011.50",
"POORLAT":34.6536303758621,
"POORLON":108.053232252598
},
{
"FAMILY_ID":"100000115823346",
"HOUSEHOLDERNAME":"张亚",
"COUNT":4,
"INCOME":"4735.88",
"POORLAT":null,
"POORLON":null
},
{
"FAMILY_ID":"100000115825163",
"HOUSEHOLDERNAME":"王俊武",
"COUNT":3,
"INCOME":"2553.80",
"POORLAT":null,
"POORLON":null
},
{
"FAMILY_ID":"100000115853721",
"HOUSEHOLDERNAME":"朱建刚",
"COUNT":3,
"INCOME":"2947.00",
"POORLAT":34.6434824466705,
"POORLON":108.046317100525
},
{
"FAMILY_ID":"100000115897559",
"HOUSEHOLDERNAME":"王明启",
"COUNT":4,
"INCOME":"2966.00",
"POORLAT":null,
"POORLON":null
},
{
"FAMILY_ID":"100000115932372",
"HOUSEHOLDERNAME":"邓新娃",
"COUNT":4,
"INCOME":"2989.50",
"POORLAT":34.6751704597962,
"POORLON":109.113206316227
},
{
"FAMILY_ID":"100000115940794",
"HOUSEHOLDERNAME":"孙计锁",
"COUNT":4,
"INCOME":"2915.00",
"POORLAT":34.7958680272102,
"POORLON":108.363746207952
},
{
"FAMILY_ID":"100000115951159",
"HOUSEHOLDERNAME":"周改强",
"COUNT":4,
"INCOME":"1613.00",
"POORLAT":34.59733,
"POORLON":108.57996
},
{
"FAMILY_ID":"100000115963888",
"HOUSEHOLDERNAME":"孙珂珂",
"COUNT":2,
"INCOME":"2982.00",
"POORLAT":34.8052461124912,
"POORLON":108.3691159904
},