{
"RECORDS":[
{
"POORLON":"108.510543",
"POORLAT":"34.526713",
"VILLAGE_ID":"610425012002",
"VILLAGE_NAME":"段胡村委会",
"AREA_DESC":"咸阳市-礼泉县-赵镇",
"村主导产业类型":"养殖业",
"主导产业带动户数":"22",
"主导产业带动收益":"65000",
"新型经营主体带动总户数":"22",
"新型经营主体带动总收入":"65000",
"采集时间":null,
"VRURL":null,
"CGCSLNG":"108.510543",
"CGCSLAT":"34.526713"
},
{
"POORLON":"108.157494783401",
"POORLAT":"35.04925096035",
"VILLAGE_ID":"610427011031",
"VILLAGE_NAME":"炭店村委会",
"AREA_DESC":"咸阳市-彬州市-新民镇",
"村主导产业类型":"养殖业",
"主导产业带动户数":"29",
"主导产业带动收益":"47900",
"新型经营主体带动总户数":"0",
"新型经营主体带动总收入":"0",
"采集时间":null,
"VRURL":"http:\/\/61.185.20.147:8080\/xml\/village\/68217ee116c3fc6fe49d06a32538dd01\/",
"CGCSLNG":"108.157494783401",
"CGCSLAT":"35.04925096035"
},
{
"POORLON":"107.768262",
"POORLAT":"35.212959",
"VILLAGE_ID":"610428002002",
"VILLAGE_NAME":"丁家村委会",
"AREA_DESC":"咸阳市-长武县-丁家镇",
"村主导产业类型":"养殖业",
"主导产业带动户数":"18",
"主导产业带动收益":"26400",
"新型经营主体带动总户数":"0",
"新型经营主体带动总收入":"0",
"采集时间":null,
"VRURL":"http:\/\/61.185.20.147:8080\/xml\/village\/aa63918b16f76d8fad8268e87ebc0a56\/",
"CGCSLNG":"107.768262",
"CGCSLAT":"35.212959"
},
{
"POORLON":"108.532715",
"POORLAT":"34.5925",
"VILLAGE_ID":"610425010037",
"VILLAGE_NAME":"袁家村委会",
"AREA_DESC":"咸阳市-礼泉县-烟霞镇",
"村主导产业类型":"养殖业",
"主导产业带动户数":"9",
"主导产业带动收益":"37200",
"新型经营主体带动总户数":"0",
"新型经营主体带动总收入":"0",
"采集时间":null,
"VRURL":null,
"CGCSLNG":"108.532715",
"CGCSLAT":"34.5925"
},
{
"POORLON":"107.77788",
"POORLAT":"35.19828",
"VILLAGE_ID":"610428002005",
"VILLAGE_NAME":"南磵村委会",
"AREA_DESC":"咸阳市-长武县-丁家镇",
"村主导产业类型":"养殖业",
"主导产业带动户数":"21",
"主导产业带动收益":"18150",
"新型经营主体带动总户数":"10",
"新型经营主体带动总收入":"6560",
"采集时间":null,
"VRURL":"http:\/\/61.185.20.147:8080\/xml\/village\/96867a5d411b1d29e45ecad0ecb94d22\/",
"CGCSLNG":"107.77788",
"CGCSLAT":"35.19828"
},
{
"POORLON":"107.843092",
"POORLAT":"35.273811",
"VILLAGE_ID":"610428005010",
"VILLAGE_NAME":"石杨河村委会",
"AREA_DESC":"咸阳市-长武县-彭公镇",
"村主导产业类型":"养殖业",
"主导产业带动户数":"12",
"主导产业带动收益":"17550",
"新型经营主体带动总户数":"9",
"新型经营主体带动总收入":"5904",
"采集时间":null,
"VRURL":"http:\/\/61.185.20.147:8080\/xml\/village\/1dd921f5aa425569c1728c8fa165b648\/",
"CGCSLNG":"107.843092",
"CGCSLAT":"35.273811"
},
{
"POORLON":"107.83511",
"POORLAT":"35.2205",
"VILLAGE_ID":"610428005008",
"VILLAGE_NAME":"彭北村委会",
"AREA_DESC":"咸阳市-长武县-彭公镇",
"村主导产业类型":"养殖业",
"主导产业带动户数":"9",
"主导产业带动收益":"11400",
"新型经营主体带动总户数":"14",
"新型经营主体带动总收入":"7609.6",
"采集时间":null,
"VRURL":null,
"CGCSLNG":"107.83511",
"CGCSLAT":"35.2205"
},
{
"POORLON":"107.901850201934",
"POORLAT":"35.0693096138787",
"VILLAGE_ID":"610428006009",
"VILLAGE_NAME":"樊罗村委会",
"AREA_DESC":"咸阳市-长武县-亭口镇",
"村主导产业类型":"养殖业",
"主导产业带动户数":"24",
"主导产业带动收益":"18600",
"新型经营主体带动总户数":"8",
"新型经营主体带动总收入":"4460.8",
"采集时间":null,
"VRURL":"http:\/\/61.185.20.147:8080\/xml\/village\/7492f3236ce68f72c68ab5bd07ec9b52\/",
"CGCSLNG":"107.901850201934",
"CGCSLAT":"35.0693096138787"
},
{
"POORLON":"107.74305",
"POORLAT":"35.13685",
"VILLAGE_ID":"610428008008",
"VILLAGE_NAME":"武家村委会",
"AREA_DESC":"咸阳市-长武县-枣园镇",
"村主导产业类型":"养殖业",
"主导产业带动户数":"8",
"主导产业带动收益":"10150",
"新型经营主体带动总户数":"12",
"新型经营主体带动总收入":"7084.8",
"采集时间":null,
"VRURL":"http:\/\/61.185.20.147:8080\/xml\/village\/77005768b6c302dc629c489886ed6884\/",
"CGCSLNG":"107.74305",
"CGCSLAT":"35.13685"
},
{
"POORLON":"107.883932650089",
"POORLAT":"35.1885998249053",
"VILLAGE_ID":"610428007001",
"VILLAGE_NAME":"坳里村委会",
"AREA_DESC":"咸阳市-长武县-相公镇",
"村主导产业类型":"养殖业",
"主导产业带动户数":"3",
"主导产业带动收益":"3000",
"新型经营主体带动总户数":"11",
"新型经营主体带动总收入":"6035.2",
"采集时间":null,
"VRURL":"http:\/\/61.185.20.147:8080\/xml\/village\/0460a68311b8d8a9519e9c3517464522\/",
"CGCSLNG":"107.883932650089",
"CGCSLAT":"35.1885998249053"
},
{
"POORLON":"107.961324091088",
"POORLAT":"35.2131138693568",
"VILLAGE_ID":"610428007002",
"VILLAGE_NAME":"东咀村委会",
"AREA_DESC":"咸阳市-长武县-相公镇",
"村主导产业类型":"养殖业",
"主导产业带动户数":"18",
"主导产业带动收益":"17100",
"新型经营主体带动总户数":"2",
"新型经营主体带动总收入":"918.4",
"采集时间":null,
"VRURL":"http:\/\/61.185.20.147:8080\/xml\/village\/e0bd91d1d2fad9c31df4dac101d43ad6\/",
"CGCSLNG":"107.961324091088",
"CGCSLAT":"35.2131138693568"
},
{
"POORLON":"108.279223166653",
"POORLAT":"35.2260453978971",
"VILLAGE_ID":"610429003005",
"VILLAGE_NAME":"椒村委会",
"AREA_DESC":"咸阳市-旬邑县-湫坡头镇",
"村主导产业类型":"养殖业",
"主导产业带动户数":"11",
"主导产业带动收益":"12450",
"新型经营主体带动总户数":"15",
"新型经营主体带动总收入":"9052.8",
"采集时间":null,
"VRURL":null,
"CGCSLNG":"108.279223166653",
"CGCSLAT":"35.2260453978971"
},
{
"POORLON":"108.242310864111",
"POORLAT":"35.2153177439146",
"VILLAGE_ID":"610429003004",
"VILLAGE_NAME":"甘家店村委会",
"AREA_DESC":"咸阳市-旬邑县-湫坡头镇",
"村主导产业类型":"养殖业",
"主导产业带动户数":"6",
"主导产业带动收益":"2400",
"新型经营主体带动总户数":"17",
"新型经营主体带动总收入":"10364.8",
"采集时间":null,
"VRURL":null,
"CGCSLNG":"108.242310864111",
"CGCSLAT":"35.2153177439146"
},
{
"POORLON":"108.067",
"POORLAT":"34.32724",
"VILLAGE_ID":"610431005011",
"VILLAGE_NAME":"聂村委会",
"AREA_DESC":"咸阳市-武功县-武功镇",
"村主导产业类型":"养殖业",
"主导产业带动户数":"15",
"主导产业带动收益":"0",
"新型经营主体带动总户数":"0",
"新型经营主体带动总收入":"0",
"采集时间":null,
"VRURL":null,
"CGCSLNG":"108.067",
"CGCSLAT":"34.32724"
},
{
"POORLON":"108.3115",
"POORLAT":"34.35884",
"VILLAGE_ID":"610431009011",
"VILLAGE_NAME":"三马村委会",
"AREA_DESC":"咸阳市-武功县-长宁镇河道三农发展服务中心",
"村主导产业类型":"养殖业",
"主导产业带动户数":"4",
"主导产业带动收益":"390",
"新型经营主体带动总户数":"0",
"新型经营主体带动总收入":"0",
"采集时间":null,
"VRURL":"http:\/\/61.185.20.147:8080\/xml\/village\/392fa9f5d62251c867e798909f08f47d\/",
"CGCSLNG":"108.3115",
"CGCSLAT":"34.35884"
},
{
"POORLON":"108.215338826179",
"POORLAT":"34.2719693183898",
"VILLAGE_ID":"610431012015",
"VILLAGE_NAME":"南仁村委会",
"AREA_DESC":"咸阳市-武功县-普集街道办南仁三农发展服务中心",
"村主导产业类型":"养殖业",
"主导产业带动户数":"4",
"主导产业带动收益":"0",
"新型经营主体带动总户数":"0",
"新型经营主体带动总收入":"0",
"采集时间":null,
"VRURL":"http:\/\/61.185.20.147:8080\/xml\/village\/c5a620fb74da90c928e40b3a7111ea9a\/",
"CGCSLNG":"108.215338826179",
"CGCSLAT":"34.2719693183898"
},
{
"POORLON":"108.220161437988",
"POORLAT":"34.2834663391113",
"VILLAGE_ID":"610431012012",
"VILLAGE_NAME":"北坡村委会",
"AREA_DESC":"咸阳市-武功县-普集街道办南仁三农发展服务中心",
"村主导产业类型":"养殖业",
"主导产业带动户数":"3",
"主导产业带动收益":"18000",
"新型经营主体带动总户数":"0",
"新型经营主体带动总收入":"0",
"采集时间":null,
"VRURL":null,
"CGCSLNG":"108.220161437988",
"CGCSLAT":"34.2834663391113"
},
{
"POORLON":"108.6453",
"POORLAT":"34.61411",
"VILLAGE_ID":"610423009006",
"VILLAGE_NAME":"东街村委会",
"AREA_DESC":"咸阳市-泾阳县-王桥镇",
"村主导产业类型":"养殖业",
"主导产业带动户数":"44",
"主导产业带动收益":"229142",
"新型经营主体带动总户数":"21",
"新型经营主体带动总收入":"0",
"采集时间":null,
"VRURL":"http:\/\/61.185.20.147:8080\/xml\/village\/a133b4946f8b70ad50a91c4d4c62f462\/",
"CGCSLNG":"108.6453",
"CGCSLAT":"34.61411"
},
{
"POORLON":"108.765371881092",
"POORLAT":"34.6249681087587",
"VILLAGE_ID":"610423012013",
"VILLAGE_NAME":"罗家村委会",
"AREA_DESC":"咸阳市-泾阳县-云阳镇",
"村主导产业类型":"养殖业",
"主导产业带动户数":"22",
"主导产业带动收益":"21000",
"新型经营主体带动总户数":"7",
"新型经营主体带动总收入":"0",
"采集时间":null,
"VRURL":"http:\/\/61.185.20.147:8080\/xml\/village\/f889d693a3684a265f4cdd206c049c85\/",
"CGCSLNG":"108.765371881092",
"CGCSLAT":"34.6249681087587"
},
{
"POORLON":"108.443801879882",
"POORLAT":"34.486701965332",
"VILLAGE_ID":"610425001064",
"VILLAGE_NAME":"志泉村委会",
"AREA_DESC":"咸阳市-礼泉县-城关街道办",
"村主导产业类型":"养殖业",
"主导产业带动户数":"38",
"主导产业带动收益":"0",
"新型经营主体带动总户数":"21",
"新型经营主体带动总收入":"0",
"采集时间":null,
"VRURL":null,
"CGCSLNG":"108.443801879882",
"CGCSLAT":"34.486701965332"
},
{
"POORLON":"108.11919",
"POORLAT":"34.98441",
"VILLAGE_ID":"610427007011",
"VILLAGE_NAME":"李西村委会",
"AREA_DESC":"咸阳市-彬州市-太峪镇",
"村主导产业类型":"养殖业",
"主导产业带动户数":"16",
"主导产业带动收益":"0",
"新型经营主体带动总户数":"0",
"新型经营主体带动总收入":"0",
"采集时间":null,
"VRURL":null,
"CGCSLNG":"108.11919",
"CGCSLAT":"34.98441"
},
{
"POORLON":"107.721464079607",
"POORLAT":"35.1794209260074",
"VILLAGE_ID":"610428002004",
"VILLAGE_NAME":"柳家河村委会",
"AREA_DESC":"咸阳市-长武县-丁家镇",
"村主导产业类型":"养殖业",
"主导产业带动户数":"17",
"主导产业带动收益":"0",
"新型经营主体带动总户数":"0",
"新型经营主体带动总收入":"0",
"采集时间":null,
"VRURL":"http:\/\/61.185.20.147:8080\/xml\/village\/db61fcde21b5e9900862fb776d4ce4b1\/",
"CGCSLNG":"107.721464079607",
"CGCSLAT":"35.1794209260074"
},
{
"POORLON":"107.834168",
"POORLAT":"35.036549",
"VILLAGE_ID":"610428004012",
"VILLAGE_NAME":"四合村委会",
"AREA_DESC":"咸阳市-长武县-巨家镇",
"村主导产业类型":"养殖业",
"主导产业带动户数":"10",
"主导产业带动收益":"0",
"新型经营主体带动总户数":"0",
"新型经营主体带动总收入":"0",
"采集时间":null,
"VRURL":"http:\/\/61.185.20.147:8080\/xml\/village\/98747e13bdb59bc4ca1b2b8d3bb77ad0\/",
"CGCSLNG":"107.834168",
"CGCSLAT":"35.036549"
},
{
"POORLON":"107.907472633235",
"POORLAT":"35.0383337614603",
"VILLAGE_ID":"610428006023",
"VILLAGE_NAME":"铁渠村委会",
"AREA_DESC":"咸阳市-长武县-亭口镇",
"村主导产业类型":"养殖业",
"主导产业带动户数":"25",
"主导产业带动收益":"0",
"新型经营主体带动总户数":"5",
"新型经营主体带动总收入":"6.1",
"采集时间":null,
"VRURL":"http:\/\/61.185.20.147:8080\/xml\/village\/ced51395c2acb08f64755230840d1097\/",
"CGCSLNG":"107.907472633235",
"CGCSLAT":"35.0383337614603"
},
{
"POORLON":"108.391390728836",
"POORLAT":"35.164037364418",
"VILLAGE_ID":"610429001009",
"VILLAGE_NAME":"留石村委会",
"AREA_DESC":"咸阳市-旬邑县-城关街道",
"村主导产业类型":"养殖业",
"主导产业带动户数":"2",
"主导产业带动收益":"1350",
"新型经营主体带动总户数":"8",
"新型经营主体带动总收入":"4460.8",
"采集时间":null,
"VRURL":null,
"CGCSLNG":"108.391390728836",
"CGCSLAT":"35.164037364418"
},
{
"POORLON":"108.35082",
"POORLAT":"35.125004",
"VILLAGE_ID":"610429001001",
"VILLAGE_NAME":"安仁村委会",
"AREA_DESC":"咸阳市-旬邑县-城关街道",
"村主导产业类型":"养殖业",
"主导产业带动户数":"8",
"主导产业带动收益":"8550",
"新型经营主体带动总户数":"13",
"新型经营主体带动总收入":"7347.2",
"采集时间":null,
"VRURL":null,
"CGCSLNG":"108.35082",
"CGCSLAT":"35.125004"
},
{
"POORLON":"107.862198114395",
"POORLAT":"35.1735166311264",
"VILLAGE_ID":"610428009006",
"VILLAGE_NAME":"沟泉村委会",
"AREA_DESC":"咸阳市-长武县-昭仁街道",
"村主导产业类型":"养殖业",
"主导产业带动户数":"3",
"主导产业带动收益":"10000",
"新型经营主体带动总户数":"20",
"新型经营主体带动总收入":"11939.2",
"采集时间":null,
"VRURL":"http:\/\/61.185.20.147:8080\/xml\/village\/2da0a4fe639785a3f069a171baef6d5e\/",
"CGCSLNG":"107.862198114395",
"CGCSLAT":"35.1735166311264"
},
{
"POORLON":"108.217659712919",
"POORLAT":"35.2412764297765",
"VILLAGE_ID":"610429002003",
"VILLAGE_NAME":"店子河村委会",
"AREA_DESC":"咸阳市-旬邑县-底庙镇",
"村主导产业类型":"养殖业",
"主导产业带动户数":"9",
"主导产业带动收益":"12750",
"新型经营主体带动总户数":"5",
"新型经营主体带动总收入":"2886.4",
"采集时间":null,
"VRURL":"http:\/\/61.185.20.147:8080\/xml\/village\/9537dc772cc9ee6c255a7d698f454c07\/",
"CGCSLNG":"108.217659712919",
"CGCSLAT":"35.2412764297765"
},
{
"POORLON":"108.3734",
"POORLAT":"35.2458",
"VILLAGE_ID":"610429011012",
"VILLAGE_NAME":"小峪子村委会",
"AREA_DESC":"咸阳市-旬邑县-职田镇",
"村主导产业类型":"养殖业",
"主导产业带动户数":"22",
"主导产业带动收益":"16000",
"新型经营主体带动总户数":"0",
"新型经营主体带动总收入":"0",
"采集时间":null,
"VRURL":"http:\/\/61.185.20.147:8080\/xml\/village\/d7decc447e88fb166e2861922014c247\/",
"CGCSLNG":"108.3734",
"CGCSLAT":"35.2458"
},
{
"POORLON":"108.27194",
"POORLAT":"34.28308",
"VILLAGE_ID":"610431001014",
"VILLAGE_NAME":"金城村委会",
"AREA_DESC":"咸阳市-武功县-长宁镇",
"村主导产业类型":"养殖业",
"主导产业带动户数":"6",
"主导产业带动收益":"0",
"新型经营主体带动总户数":"0",
"新型经营主体带动总收入":"0",
"采集时间":null,
"VRURL":null,
"CGCSLNG":"108.27194",
"CGCSLAT":"34.28308"
},
{
"POORLON":"108.60899",
"POORLAT":"34.65785",
"VILLAGE_ID":"610423010016",
"VILLAGE_NAME":"西苗村委会",
"AREA_DESC":"咸阳市-泾阳县-兴隆镇",
"村主导产业类型":"养殖业",
"主导产业带动户数":"4",
"主导产业带动收益":"20000",
"新型经营主体带动总户数":"0",
"新型经营主体带动总收入":"0",
"采集时间":null,
"VRURL":null,
"CGCSLNG":"108.60899",
"CGCSLAT":"34.65785"
},
{
"POORLON":"108.704420280456",
"POORLAT":"34.3305879116058",
"VILLAGE_ID":"610423012002",
"VILLAGE_NAME":"大里村委会",
"AREA_DESC":"咸阳市-泾阳县-云阳镇",
"村主导产业类型":"养殖业",
"主导产业带动户数":"11",
"主导产业带动收益":"51990",
"新型经营主体带动总户数":"0",
"新型经营主体带动总收入":"0",
"采集时间":null,
"VRURL":null,
"CGCSLNG":"108.704420280456",
"CGCSLAT":"34.3305879116058"
},
{
"POORLON":"108.123889806164",
"POORLAT":"34.7750305955636",
"VILLAGE_ID":"610426006031",
"VILLAGE_NAME":"上孙家村委会",
"AREA_DESC":"咸阳市-永寿县-马坊镇",
"村主导产业类型":"养殖业",
"主导产业带动户数":"15",
"主导产业带动收益":"40000",
"新型经营主体带动总户数":"0",
"新型经营主体带动总收入":"0",
"采集时间":null,
"VRURL":"http:\/\/61.185.20.147:8080\/xml\/village\/fb983f68547d581c5194aff9654e4f34\/",
"CGCSLNG":"108.123889806164",
"CGCSLAT":"34.7750305955636"
},
{
"POORLON":"107.768005371093",
"POORLAT":"35.2248725891113",
"VILLAGE_ID":"610428009026",
"VILLAGE_NAME":"代岭村委会",
"AREA_DESC":"咸阳市-长武县-昭仁街道",
"村主导产业类型":"养殖业",
"主导产业带动户数":"7",
"主导产业带动收益":"36600",
"新型经营主体带动总户数":"99",
"新型经营主体带动总收入":"81228",
"采集时间":null,
"VRURL":"http:\/\/61.185.20.147:8080\/xml\/village\/25f598ee1ec7be4794f12be2099baa03\/",
"CGCSLNG":"107.768005371093",
"CGCSLAT":"35.2248725891113"
},
{
"POORLON":"108.306341409683",
"POORLAT":"35.2463965415954",
"VILLAGE_ID":"610429003001",
"VILLAGE_NAME":"北崖头村委会",
"AREA_DESC":"咸阳市-旬邑县-湫坡头镇",
"村主导产业类型":"养殖业",
"主导产业带动户数":"19",
"主导产业带动收益":"85000",
"新型经营主体带动总户数":"72",
"新型经营主体带动总收入":"14017",
"采集时间":null,
"VRURL":null,
"CGCSLNG":"108.306341409683",
"CGCSLAT":"35.2463965415954"
},
{
"POORLON":"108.4081",
"POORLAT":"35.2289",
"VILLAGE_ID":"610429011011",
"VILLAGE_NAME":"下墙村委会",
"AREA_DESC":"咸阳市-旬邑县-职田镇",
"村主导产业类型":"养殖业",
"主导产业带动户数":"23",
"主导产业带动收益":"26120",
"新型经营主体带动总户数":"0",
"新型经营主体带动总收入":"0",
"采集时间":null,
"VRURL":"http:\/\/61.185.20.147:8080\/xml\/village\/1c338a04704d6b67cc3e79b0482e242e\/",
"CGCSLNG":"108.4081",
"CGCSLAT":"35.2289"
},
{
"POORLON":"108.800773620605",
"POORLAT":"34.6539688110351",
"VILLAGE_ID":"610423001021",
"VILLAGE_NAME":"姚家村委会",
"AREA_DESC":"咸阳市-泾阳县-安吴镇",
"村主导产业类型":"养殖业",
"主导产业带动户数":"39",
"主导产业带动收益":"0",
"新型经营主体带动总户数":"117",
"新型经营主体带动总收入":"0",
"采集时间":null,
"VRURL":null,
"CGCSLNG":"108.800773620605",
"CGCSLAT":"34.6539688110351"
},
{
"POORLON":"108.81329",
"POORLAT":"34.633194",
"VILLAGE_ID":"610423012025",
"VILLAGE_NAME":"中街村委会",
"AREA_DESC":"咸阳市-泾阳县-云阳镇",
"村主导产业类型":"养殖业",
"主导产业带动户数":"12",
"主导产业带动收益":"0",
"新型经营主体带动总户数":"12",
"新型经营主体带动总收入":"0",
"采集时间":null,
"VRURL":null,
"CGCSLNG":"108.81329",
"CGCSLAT":"34.633194"
},
{
"POORLON":"107.964120114084",
"POORLAT":"35.1907839852512",
"VILLAGE_ID":"610427012015",
"VILLAGE_NAME":"弥家河村委会",
"AREA_DESC":"咸阳市-彬州市-义门镇",
"村主导产业类型":"养殖业",
"主导产业带动户数":"11",
"主导产业带动收益":"5800",
"新型经营主体带动总户数":"22",
"新型经营主体带动总收入":"5800",
"采集时间":null,
"VRURL":"http:\/\/61.185.20.147:8080\/xml\/village\/00218cd4a516e35c32f502ddcfbc4385\/",
"CGCSLNG":"107.964120114084",
"CGCSLAT":"35.1907839852512"
},
{
"POORLON":"107.85213",
"POORLAT":"35.221222",
"VILLAGE_ID":"610428005004",
"VILLAGE_NAME":"方庄村委会",
"AREA_DESC":"咸阳市-长武县-彭公镇",
"村主导产业类型":"养殖业",
"主导产业带动户数":"9",
"主导产业带动收益":"4500",
"新型经营主体带动总户数":"22",
"新型经营主体带动总收入":"12500",
"采集时间":null,
"VRURL":"http:\/\/61.185.20.147:8080\/xml\/village\/9951dfa38259e20d1e22d0e6f87b6163\/",
"CGCSLNG":"107.85213",
"CGCSLAT":"35.221222"
},
{
"POORLON":"107.755939597362",
"POORLAT":"35.1683745068817",
"VILLAGE_ID":"610428008009",
"VILLAGE_NAME":"西河村委会",
"AREA_DESC":"咸阳市-长武县-枣园镇",
"村主导产业类型":"养殖业",
"主导产业带动户数":"10",
"主导产业带动收益":"2900",
"新型经营主体带动总户数":"30",
"新型经营主体带动总收入":"22900",
"采集时间":null,
"VRURL":"http:\/\/61.185.20.147:8080\/xml\/village\/4dcc81fab9cec1ad0db28d80a0711c92\/",
"CGCSLNG":"107.755939597362",
"CGCSLAT":"35.1683745068817"
},
{
"POORLON":"108.27304904915",
"POORLAT":"35.212559042709",
"VILLAGE_ID":"610429003013",
"VILLAGE_NAME":"太堡村委会",
"AREA_DESC":"咸阳市-旬邑县-湫坡头镇",
"村主导产业类型":"养殖业",
"主导产业带动户数":"4",
"主导产业带动收益":"2200",
"新型经营主体带动总户数":"24",
"新型经营主体带动总收入":"20000",
"采集时间":null,
"VRURL":null,
"CGCSLNG":"108.27304904915",
"CGCSLAT":"35.212559042709"
},
{
"POORLON":"108.313805",
"POORLAT":"35.166595",
"VILLAGE_ID":"610429006016",
"VILLAGE_NAME":"南宫村委会",
"AREA_DESC":"咸阳市-旬邑县-太村镇",
"村主导产业类型":"养殖业",
"主导产业带动户数":"14",
"主导产业带动收益":"6960",
"新型经营主体带动总户数":"28",
"新型经营主体带动总收入":"6960",
"采集时间":null,
"VRURL":"http:\/\/61.185.20.147:8080\/xml\/village\/ed346af29c9a98d2ec087da51ce680c0\/",
"CGCSLNG":"108.313805",
"CGCSLAT":"35.166595"
},
{
"POORLON":"108.352541565895",
"POORLAT":"35.0924904346466",
"VILLAGE_ID":"610429005009",
"VILLAGE_NAME":"新合村委会",
"AREA_DESC":"咸阳市-旬邑县-清塬镇",
"村主导产业类型":"养殖业",
"主导产业带动户数":"5",
"主导产业带动收益":"2900",
"新型经营主体带动总户数":"15",
"新型经营主体带动总收入":"22900",
"采集时间":null,
"VRURL":"http:\/\/61.185.20.147:8080\/xml\/village\/7c0d488a20ba80badc32c91dac72ffa2\/",
"CGCSLNG":"108.352541565895",
"CGCSLAT":"35.0924904346466"
},
{
"POORLON":"108.26794",
"POORLAT":"34.254253",
"VILLAGE_ID":"610431006006",
"VILLAGE_NAME":"金铁寨村委会",
"AREA_DESC":"咸阳市-武功县-小村镇",
"村主导产业类型":"养殖业",
"主导产业带动户数":"6",
"主导产业带动收益":"0",
"新型经营主体带动总户数":"0",
"新型经营主体带动总收入":"0",
"采集时间":null,
"VRURL":"http:\/\/61.185.20.147:8080\/xml\/village\/e13f74902670a8c001cd5c7d7d4fd8e0\/",
"CGCSLNG":"108.26794",
"CGCSLAT":"34.254253"
},
{
"POORLON":"108.191986",
"POORLAT":"34.327217",
"VILLAGE_ID":"610431008031",
"VILLAGE_NAME":"颜西庄村委会",
"AREA_DESC":"咸阳市-武功县-贞元镇",
"村主导产业类型":"养殖业",
"主导产业带动户数":"18",
"主导产业带动收益":"0",
"新型经营主体带动总户数":"0",
"新型经营主体带动总收入":"0",
"采集时间":null,
"VRURL":"http:\/\/61.185.20.147:8080\/xml\/village\/f714676ac437341b5bb6590e22ffe279\/",
"CGCSLNG":"108.191986",
"CGCSLAT":"34.327217"
},
{
"POORLON":"108.165126486424",
"POORLAT":"34.3467759698412",
"VILLAGE_ID":"610431010002",
"VILLAGE_NAME":"南留村委会",
"AREA_DESC":"咸阳市-武功县-贞元镇代家三农发展服务中心",
"村主导产业类型":"养殖业",
"主导产业带动户数":"13",
"主导产业带动收益":"0",
"新型经营主体带动总户数":"0",
"新型经营主体带动总收入":"0",
"采集时间":null,
"VRURL":"http:\/\/61.185.20.147:8080\/xml\/village\/62a6238edd63cf31badf814fadadc0a5\/",
"CGCSLNG":"108.165126486424",
"CGCSLAT":"34.3467759698412"
},
{
"POORLON":"108.86391",
"POORLAT":"34.692493",
"VILLAGE_ID":"610423001016",
"VILLAGE_NAME":"四罗沟村委会",
"AREA_DESC":"咸阳市-泾阳县-安吴镇",
"村主导产业类型":"养殖业",
"主导产业带动户数":"12",
"主导产业带动收益":"0",
"新型经营主体带动总户数":"0",
"新型经营主体带动总收入":"0",
"采集时间":null,
"VRURL":null,
"CGCSLNG":"108.86391",
"CGCSLAT":"34.692493"
},
{
"POORLON":"108.71368",
"POORLAT":"34.599365",
"VILLAGE_ID":"610423006009",
"VILLAGE_NAME":"桥底村委会",
"AREA_DESC":"咸阳市-泾阳县-桥底镇",
"村主导产业类型":"养殖业",
"主导产业带动户数":"18",
"主导产业带动收益":"0",
"新型经营主体带动总户数":"0",
"新型经营主体带动总收入":"0",
"采集时间":null,
"VRURL":null,
"CGCSLNG":"108.71368",
"CGCSLAT":"34.599365"
},
{
"POORLON":"108.894219",
"POORLAT":"34.57753\t",
"VILLAGE_ID":"610423007008",
"VILLAGE_NAME":"三渠村委会",
"AREA_DESC":"咸阳市-泾阳县-三渠镇",
"村主导产业类型":"养殖业",
"主导产业带动户数":"18",
"主导产业带动收益":"0",
"新型经营主体带动总户数":"0",
"新型经营主体带动总收入":"0",
"采集时间":null,
"VRURL":null,
"CGCSLNG":"108.894219",
"CGCSLAT":"34.57753\t"
},
{
"POORLON":"108.69205",
"POORLAT":"34.680614",
"VILLAGE_ID":"610423010003",
"VILLAGE_NAME":"北程村委会",
"AREA_DESC":"咸阳市-泾阳县-兴隆镇",
"村主导产业类型":"养殖业",
"主导产业带动户数":"16",
"主导产业带动收益":"0",
"新型经营主体带动总户数":"0",
"新型经营主体带动总收入":"0",
"采集时间":null,
"VRURL":null,
"CGCSLNG":"108.69205",
"CGCSLAT":"34.680614"
},
{
"POORLON":"108.8157",
"POORLAT":"34.640278",
"VILLAGE_ID":"610423012003",
"VILLAGE_NAME":"东街村委会",
"AREA_DESC":"咸阳市-泾阳县-云阳镇",
"村主导产业类型":"养殖业",
"主导产业带动户数":"24",
"主导产业带动收益":"0",
"新型经营主体带动总户数":"0",
"新型经营主体带动总收入":"0",
"采集时间":null,
"VRURL":null,
"CGCSLNG":"108.8157",
"CGCSLAT":"34.640278"
},
{
"POORLON":"108.857702",
"POORLAT":"34.608307",
"VILLAGE_ID":"610423012009",
"VILLAGE_NAME":"滑里村委会",
"AREA_DESC":"咸阳市-泾阳县-云阳镇",
"村主导产业类型":"养殖业",
"主导产业带动户数":"41",
"主导产业带动收益":"0",
"新型经营主体带动总户数":"0",
"新型经营主体带动总收入":"0",
"采集时间":null,
"VRURL":null,
"CGCSLNG":"108.857702",
"CGCSLAT":"34.608307"
},
{
"POORLON":"108.818907",
"POORLAT":"34.608081",
"VILLAGE_ID":"610423012012",
"VILLAGE_NAME":"居智村委会",
"AREA_DESC":"咸阳市-泾阳县-云阳镇",
"村主导产业类型":"养殖业",
"主导产业带动户数":"11",
"主导产业带动收益":"0",
"新型经营主体带动总户数":"0",
"新型经营主体带动总收入":"0",
"采集时间":null,
"VRURL":"http:\/\/61.185.20.147:8080\/xml\/village\/fe2bc9a581d980485ae7b33bad9db775\/",
"CGCSLNG":"108.818907",
"CGCSLAT":"34.608081"
},
{
"POORLON":"108.542108594834",
"POORLAT":"34.5766906603173",
"VILLAGE_ID":"610425010045",
"VILLAGE_NAME":"御驾宫村委会",
"AREA_DESC":"咸阳市-礼泉县-烟霞镇",
"村主导产业类型":"养殖业",
"主导产业带动户数":"11",
"主导产业带动收益":"45800",
"新型经营主体带动总户数":"0",
"新型经营主体带动总收入":"0",
"采集时间":null,
"VRURL":null,
"CGCSLNG":"108.542108594834",
"CGCSLAT":"34.5766906603173"
},
{
"POORLON":"108.375694274902",
"POORLAT":"34.6282196044921",
"VILLAGE_ID":"610425011010",
"VILLAGE_NAME":"联二村委会",
"AREA_DESC":"咸阳市-礼泉县-昭陵镇",
"村主导产业类型":"养殖业",
"主导产业带动户数":"13",
"主导产业带动收益":"45800",
"新型经营主体带动总户数":"0",
"新型经营主体带动总收入":"0",
"采集时间":null,
"VRURL":null,
"CGCSLNG":"108.375694274902",
"CGCSLAT":"34.6282196044921"
},
{
"POORLON":"107.83513",
"POORLAT":"35.2205",
"VILLAGE_ID":"610428005012",
"VILLAGE_NAME":"孝席村委会",
"AREA_DESC":"咸阳市-长武县-彭公镇",
"村主导产业类型":"养殖业",
"主导产业带动户数":"12",
"主导产业带动收益":"19100",
"新型经营主体带动总户数":"15",
"新型经营主体带动总收入":"29100",
"采集时间":null,
"VRURL":"http:\/\/61.185.20.147:8080\/xml\/village\/ef82e668dac85c9fee4c1c56af9335c6\/",
"CGCSLNG":"107.83513",
"CGCSLAT":"35.2205"
},
{
"POORLON":"108.151904225349",
"POORLAT":"35.2464797496795",
"VILLAGE_ID":"610429002011",
"VILLAGE_NAME":"西牛村委会",
"AREA_DESC":"咸阳市-旬邑县-底庙镇",
"村主导产业类型":"养殖业",
"主导产业带动户数":"2",
"主导产业带动收益":"48000",
"新型经营主体带动总户数":"0",
"新型经营主体带动总收入":"0",
"采集时间":null,
"VRURL":null,
"CGCSLNG":"108.151904225349",
"CGCSLAT":"35.2464797496795"
},
{
"POORLON":"108.05615234375",
"POORLAT":"34.3679237365722",
"VILLAGE_ID":"610431007005",
"VILLAGE_NAME":"桂营村委会",
"AREA_DESC":"咸阳市-武功县-游凤镇",
"村主导产业类型":"养殖业",
"主导产业带动户数":"19",
"主导产业带动收益":"0",
"新型经营主体带动总户数":"0",
"新型经营主体带动总收入":"0",
"采集时间":null,
"VRURL":null,
"CGCSLNG":"108.05615234375",
"CGCSLAT":"34.3679237365722"
},
{
"POORLON":"108.243746544156",
"POORLAT":"34.2164592458385",
"VILLAGE_ID":"610431011007",
"VILLAGE_NAME":"梅花村委会",
"AREA_DESC":"咸阳市-武功县-小村镇普集街三农发展服务中心",
"村主导产业类型":"养殖业",
"主导产业带动户数":"13",
"主导产业带动收益":"0",
"新型经营主体带动总户数":"0",
"新型经营主体带动总收入":"0",
"采集时间":null,
"VRURL":"http:\/\/61.185.20.147:8080\/xml\/village\/622316ec02e8b5bc5a6f87999837205e\/",
"CGCSLNG":"108.243746544156",
"CGCSLAT":"34.2164592458385"
},
{
"POORLON":"108.547772569708",
"POORLAT":"34.4377609469984",
"VILLAGE_ID":"610481001006",
"VILLAGE_NAME":"东北村委会",
"AREA_DESC":"咸阳市-兴平市-店张街道",
"村主导产业类型":"养殖业",
"主导产业带动户数":"12",
"主导产业带动收益":"0",
"新型经营主体带动总户数":"0",
"新型经营主体带动总收入":"0",
"采集时间":null,
"VRURL":"http:\/\/61.185.20.147:8080\/xml\/village\/3c170a00e783ae2b2d36de5a7ec7bd0c\/",
"CGCSLNG":"108.547772569708",
"CGCSLAT":"34.4377609469984"
},
{
"POORLON":"108.332471491226",
"POORLAT":"34.2529398846007",
"VILLAGE_ID":"610481008008",
"VILLAGE_NAME":"三解村委会",
"AREA_DESC":"咸阳市-兴平市-桑镇",
"村主导产业类型":"养殖业",
"主导产业带动户数":"10",
"主导产业带动收益":"0",
"新型经营主体带动总户数":"0",
"新型经营主体带动总收入":"0",
"采集时间":null,
"VRURL":null,
"CGCSLNG":"108.332471491226",
"CGCSLAT":"34.2529398846007"
},
{
"POORLON":"108.38005",
"POORLAT":"34.253963",
"VILLAGE_ID":"610481009001",
"VILLAGE_NAME":"北安谷村委会",
"AREA_DESC":"咸阳市-兴平市-汤坊镇",
"村主导产业类型":"养殖业",
"主导产业带动户数":"7",
"主导产业带动收益":"0",
"新型经营主体带动总户数":"0",
"新型经营主体带动总收入":"0",
"采集时间":null,
"VRURL":null,
"CGCSLNG":"108.38005",
"CGCSLAT":"34.253963"
},
{
"POORLON":"108.371288418769",
"POORLAT":"34.2448078393936",
"VILLAGE_ID":"610481009004",
"VILLAGE_NAME":"梁家村委会",
"AREA_DESC":"咸阳市-兴平市-汤坊镇",
"村主导产业类型":"养殖业",
"主导产业带动户数":"12",
"主导产业带动收益":"0",
"新型经营主体带动总户数":"0",
"新型经营主体带动总收入":"0",
"采集时间":null,
"VRURL":null,
"CGCSLNG":"108.371288418769",
"CGCSLAT":"34.2448078393936"
},
{
"POORLON":"108.3897",
"POORLAT":"34.26867",
"VILLAGE_ID":"610481009011",
"VILLAGE_NAME":"王堡村委会",
"AREA_DESC":"咸阳市-兴平市-汤坊镇",
"村主导产业类型":"养殖业",
"主导产业带动户数":"12",
"主导产业带动收益":"0",
"新型经营主体带动总户数":"0",
"新型经营主体带动总收入":"0",
"采集时间":null,
"VRURL":null,
"CGCSLNG":"108.3897",
"CGCSLAT":"34.26867"
},
{
"POORLON":"108.3424",
"POORLAT":"34.28455",
"VILLAGE_ID":"610481012010",
"VILLAGE_NAME":"赵北村委会",
"AREA_DESC":"咸阳市-兴平市-赵村镇",
"村主导产业类型":"养殖业",
"主导产业带动户数":"10",
"主导产业带动收益":"0",
"新型经营主体带动总户数":"0",
"新型经营主体带动总收入":"0",
"采集时间":null,
"VRURL":null,
"CGCSLNG":"108.3424",
"CGCSLAT":"34.28455"
},
{
"POORLON":"108.731152772903",
"POORLAT":"34.5981866121292",
"VILLAGE_ID":"610423006014",
"VILLAGE_NAME":"寨子沟村委会",
"AREA_DESC":"咸阳市-泾阳县-桥底镇",
"村主导产业类型":"养殖业",
"主导产业带动户数":"40",
"主导产业带动收益":"317500",
"新型经营主体带动总户数":"0",
"新型经营主体带动总收入":"0",
"采集时间":null,
"VRURL":null,
"CGCSLNG":"108.731152772903",
"CGCSLAT":"34.5981866121292"
},
{
"POORLON":"108.87308",
"POORLAT":"34.60338",
"VILLAGE_ID":"610423007002",
"VILLAGE_NAME":"曹家村委会",
"AREA_DESC":"咸阳市-泾阳县-三渠镇",
"村主导产业类型":"养殖业",
"主导产业带动户数":"28",
"主导产业带动收益":"235000",
"新型经营主体带动总户数":"0",
"新型经营主体带动总收入":"0",
"采集时间":null,
"VRURL":null,
"CGCSLNG":"108.87308",
"CGCSLAT":"34.60338"
},
{
"POORLON":"108.666448902534",
"POORLAT":"34.5970319128109",
"VILLAGE_ID":"610423009009",
"VILLAGE_NAME":"社树村委会",
"AREA_DESC":"咸阳市-泾阳县-王桥镇",
"村主导产业类型":"养殖业",
"主导产业带动户数":"12",
"主导产业带动收益":"0",
"新型经营主体带动总户数":"0",
"新型经营主体带动总收入":"0",
"采集时间":null,
"VRURL":"http:\/\/61.185.20.147:8080\/xml\/village\/3a8f6f7a779c8f992c659932d8d4a43d\/",
"CGCSLNG":"108.666448902534",
"CGCSLAT":"34.5970319128109"
},
{
"POORLON":"108.63635390343",
"POORLAT":"34.6145467201616",
"VILLAGE_ID":"610423009012",
"VILLAGE_NAME":"王桥村委会",
"AREA_DESC":"咸阳市-泾阳县-王桥镇",
"村主导产业类型":"养殖业",
"主导产业带动户数":"15",
"主导产业带动收益":"0",
"新型经营主体带动总户数":"0",
"新型经营主体带动总收入":"0",
"采集时间":null,
"VRURL":null,
"CGCSLNG":"108.63635390343",
"CGCSLAT":"34.6145467201616"
},
{
"POORLON":"108.687935905413",
"POORLAT":"34.6951950644445",
"VILLAGE_ID":"610423010019",
"VILLAGE_NAME":"杨赵村委会",
"AREA_DESC":"咸阳市-泾阳县-兴隆镇",
"村主导产业类型":"养殖业",
"主导产业带动户数":"28",
"主导产业带动收益":"0",
"新型经营主体带动总户数":"0",
"新型经营主体带动总收入":"0",
"采集时间":null,
"VRURL":null,
"CGCSLNG":"108.687935905413",
"CGCSLAT":"34.6951950644445"
},
{
"POORLON":"108.75282",
"POORLAT":"34.54891",
"VILLAGE_ID":"610423013021",
"VILLAGE_NAME":"周家道村委会",
"AREA_DESC":"咸阳市-泾阳县-中张镇",
"村主导产业类型":"养殖业",
"主导产业带动户数":"15",
"主导产业带动收益":"20000",
"新型经营主体带动总户数":"27",
"新型经营主体带动总收入":"0",
"采集时间":null,
"VRURL":null,
"CGCSLNG":"108.75282",
"CGCSLAT":"34.54891"
},
{
"POORLON":"108.704425644874",
"POORLAT":"34.3305932760238",
"VILLAGE_ID":"610425010048",
"VILLAGE_NAME":"永红村委会",
"AREA_DESC":"咸阳市-礼泉县-烟霞镇",
"村主导产业类型":"养殖业",
"主导产业带动户数":"10",
"主导产业带动收益":"29500",
"新型经营主体带动总户数":"6",
"新型经营主体带动总收入":"5000",
"采集时间":null,
"VRURL":null,
"CGCSLNG":"108.704425644874",
"CGCSLAT":"34.3305932760238"
},
{
"POORLON":"107.81731\t",
"POORLAT":"35.073635",
"VILLAGE_ID":"610428004002",
"VILLAGE_NAME":"车圈村委会",
"AREA_DESC":"咸阳市-长武县-巨家镇",
"村主导产业类型":"养殖业",
"主导产业带动户数":"7",
"主导产业带动收益":"5000",
"新型经营主体带动总户数":"10",
"新型经营主体带动总收入":"0",
"采集时间":null,
"VRURL":"http:\/\/61.185.20.147:8080\/xml\/village\/ed58da97c05a08b89c28fbe2268f2842\/",
"CGCSLNG":"107.81731\t",
"CGCSLAT":"35.073635"
},
{
"POORLON":"107.914694515288",
"POORLAT":"35.1543109497383",
"VILLAGE_ID":"610428006019",
"VILLAGE_NAME":"山庄村委会",
"AREA_DESC":"咸阳市-长武县-亭口镇",
"村主导产业类型":"养殖业",
"主导产业带动户数":"4",
"主导产业带动收益":"31000",
"新型经营主体带动总户数":"4",
"新型经营主体带动总收入":"0",
"采集时间":null,
"VRURL":"http:\/\/61.185.20.147:8080\/xml\/village\/3e1b8e7097d58aebfc1336eabe3c9943\/",
"CGCSLNG":"107.914694515288",
"CGCSLAT":"35.1543109497383"
},
{
"POORLON":"107.84697",
"POORLAT":"35.0566",
"VILLAGE_ID":"610428006034",
"VILLAGE_NAME":"支村委会",
"AREA_DESC":"咸阳市-长武县-亭口镇",
"村主导产业类型":"养殖业",
"主导产业带动户数":"18",
"主导产业带动收益":"20000",
"新型经营主体带动总户数":"16",
"新型经营主体带动总收入":"0",
"采集时间":null,
"VRURL":"http:\/\/61.185.20.147:8080\/xml\/village\/0515ee504bb20099ccf62c502894065b\/",
"CGCSLNG":"107.84697",
"CGCSLAT":"35.0566"
},
{
"POORLON":"108.27103960514",
"POORLAT":"35.2358981370925",
"VILLAGE_ID":"610429003014",
"VILLAGE_NAME":"西洼村委会",
"AREA_DESC":"咸阳市-旬邑县-湫坡头镇",
"村主导产业类型":"养殖业",
"主导产业带动户数":"18",
"主导产业带动收益":"9000",
"新型经营主体带动总户数":"12",
"新型经营主体带动总收入":"0",
"采集时间":null,
"VRURL":null,
"CGCSLNG":"108.27103960514",
"CGCSLAT":"35.2358981370925"
},
{
"POORLON":"108.150069388539",
"POORLAT":"34.2545857552333",
"VILLAGE_ID":"610431002005",
"VILLAGE_NAME":"曹家村委会",
"AREA_DESC":"咸阳市-武功县-大庄镇",
"村主导产业类型":"养殖业",
"主导产业带动户数":"12",
"主导产业带动收益":"43600",
"新型经营主体带动总户数":"0",
"新型经营主体带动总收入":"0",
"采集时间":null,
"VRURL":null,
"CGCSLNG":"108.150069388539",
"CGCSLAT":"34.2545857552333"
},
{
"POORLON":"108.27299",
"POORLAT":"34.26158",
"VILLAGE_ID":"610431006013",
"VILLAGE_NAME":"仁村村委会",
"AREA_DESC":"咸阳市-武功县-小村镇",
"村主导产业类型":"养殖业",
"主导产业带动户数":"22",
"主导产业带动收益":"0",
"新型经营主体带动总户数":"0",
"新型经营主体带动总收入":"0",
"采集时间":null,
"VRURL":"http:\/\/61.185.20.147:8080\/xml\/village\/d9371b1808a5d871d803f1f694293d60\/",
"CGCSLNG":"108.27299",
"CGCSLAT":"34.26158"
},
{
"POORLON":"108.19166",
"POORLAT":"34.263733",
"VILLAGE_ID":"610431003027",
"VILLAGE_NAME":"田桂村委会",
"AREA_DESC":"咸阳市-武功县-普集街道办",
"村主导产业类型":"养殖业",
"主导产业带动户数":"17",
"主导产业带动收益":"35000",
"新型经营主体带动总户数":"0",
"新型经营主体带动总收入":"0",
"采集时间":null,
"VRURL":null,
"CGCSLNG":"108.19166",
"CGCSLAT":"34.263733"
},
{
"POORLON":"108.148387962615",
"POORLAT":"34.3534803451797",
"VILLAGE_ID":"610431010007",
"VILLAGE_NAME":"代家村委会",
"AREA_DESC":"咸阳市-武功县-贞元镇代家三农发展服务中心",
"村主导产业类型":"养殖业",
"主导产业带动户数":"36",
"主导产业带动收益":"90000",
"新型经营主体带动总户数":"0",
"新型经营主体带动总收入":"0",
"采集时间":null,
"VRURL":"http:\/\/61.185.20.147:8080\/xml\/village\/bee2c0d93fb0647a9d081468613e20b5\/",
"CGCSLNG":"108.148387962615",
"CGCSLAT":"34.3534803451797"
},
{
"POORLON":"108.444695",
"POORLAT":"34.992\t",
"VILLAGE_ID":"610481001019",
"VILLAGE_NAME":"三王村",
"AREA_DESC":"咸阳市-兴平市-店张街道",
"村主导产业类型":"养殖业",
"主导产业带动户数":"9",
"主导产业带动收益":"5000",
"新型经营主体带动总户数":"0",
"新型经营主体带动总收入":"0",
"采集时间":null,
"VRURL":"http:\/\/61.185.20.147:8080\/xml\/village\/5154220f3cb947be6839999328e72507\/",
"CGCSLNG":"108.444695",
"CGCSLAT":"34.992\t"
},
{
"POORLON":"108.57691",
"POORLAT":"34.2963",
"VILLAGE_ID":"610481011013",
"VILLAGE_NAME":"西二村委会",
"AREA_DESC":"咸阳市-兴平市-西吴街道",
"村主导产业类型":"养殖业",
"主导产业带动户数":"3",
"主导产业带动收益":"0",
"新型经营主体带动总户数":"0",
"新型经营主体带动总收入":"0",
"采集时间":null,
"VRURL":null,
"CGCSLNG":"108.57691",
"CGCSLAT":"34.2963"
},
{
"POORLON":"108.4224",
"POORLAT":"34.296413",
"VILLAGE_ID":"610481010009",
"VILLAGE_NAME":"南仁村委会",
"AREA_DESC":"咸阳市-兴平市-西城街道",
"村主导产业类型":"养殖业",
"主导产业带动户数":"2",
"主导产业带动收益":"0",
"新型经营主体带动总户数":"0",
"新型经营主体带动总收入":"0",
"采集时间":null,
"VRURL":null,
"CGCSLNG":"108.4224",
"CGCSLAT":"34.296413"
},
{
"POORLON":"108.903435911183",
"POORLAT":"34.6743591226073",
"VILLAGE_ID":"610423001017",
"VILLAGE_NAME":"王家村委会",
"AREA_DESC":"咸阳市-泾阳县-安吴镇",
"村主导产业类型":"养殖业",
"主导产业带动户数":"3",
"主导产业带动收益":"0",
"新型经营主体带动总户数":"0",
"新型经营主体带动总收入":"0",
"采集时间":null,
"VRURL":null,
"CGCSLNG":"108.903435911183",
"CGCSLAT":"34.6743591226073"
},
{
"POORLON":"108.8558126688",
"POORLAT":"34.6640955209732",
"VILLAGE_ID":"610423001024",
"VILLAGE_NAME":"中山村委会",
"AREA_DESC":"咸阳市-泾阳县-安吴镇",
"村主导产业类型":"养殖业",
"主导产业带动户数":"4",
"主导产业带动收益":"6000",
"新型经营主体带动总户数":"0",
"新型经营主体带动总收入":"0",
"采集时间":null,
"VRURL":null,
"CGCSLNG":"108.8558126688",
"CGCSLAT":"34.6640955209732"
},
{
"POORLON":"108.868542637514",
"POORLAT":"34.6697520885345",
"VILLAGE_ID":"610423001026",
"VILLAGE_NAME":"李家庄村委会",
"AREA_DESC":"咸阳市-泾阳县-安吴镇",
"村主导产业类型":"养殖业",
"主导产业带动户数":"4",
"主导产业带动收益":"0",
"新型经营主体带动总户数":"0",
"新型经营主体带动总收入":"0",
"采集时间":null,
"VRURL":null,
"CGCSLNG":"108.868542637514",
"CGCSLAT":"34.6697520885345"
},
{
"POORLON":"108.7494",
"POORLAT":"34.66519",
"VILLAGE_ID":"610423005001",
"VILLAGE_NAME":"长街村委会",
"AREA_DESC":"咸阳市-泾阳县-口镇",
"村主导产业类型":"养殖业",
"主导产业带动户数":"4",
"主导产业带动收益":"0",
"新型经营主体带动总户数":"0",
"新型经营主体带动总收入":"0",
"采集时间":null,
"VRURL":null,
"CGCSLNG":"108.7494",
"CGCSLAT":"34.66519"
},
{
"POORLON":"108.79992",
"POORLAT":"34.61528",
"VILLAGE_ID":"610423012016",
"VILLAGE_NAME":"扫宋村委会",
"AREA_DESC":"咸阳市-泾阳县-云阳镇",
"村主导产业类型":"养殖业",
"主导产业带动户数":"31",
"主导产业带动收益":"56000",
"新型经营主体带动总户数":"30",
"新型经营主体带动总收入":"0",
"采集时间":null,
"VRURL":"http:\/\/61.185.20.147:8080\/xml\/village\/61906ddf754cc6f0a4a6e1fc2fe66f6c\/",
"CGCSLNG":"108.79992",
"CGCSLAT":"34.61528"
},
{
"POORLON":"108.25561",
"POORLAT":"34.283634",
"VILLAGE_ID":"610431001005",
"VILLAGE_NAME":"岗子村委会",
"AREA_DESC":"咸阳市-武功县-长宁镇",
"村主导产业类型":"养殖业",
"主导产业带动户数":"27",
"主导产业带动收益":"0",
"新型经营主体带动总户数":"0",
"新型经营主体带动总收入":"0",
"采集时间":null,
"VRURL":null,
"CGCSLNG":"108.25561",
"CGCSLAT":"34.283634"
},
{
"POORLON":"108.149558293585",
"POORLAT":"34.3020730496799",
"VILLAGE_ID":"610431002021",
"VILLAGE_NAME":"文徐村委会",
"AREA_DESC":"咸阳市-武功县-大庄镇",
"村主导产业类型":"养殖业",
"主导产业带动户数":"28",
"主导产业带动收益":"0",
"新型经营主体带动总户数":"0",
"新型经营主体带动总收入":"0",
"采集时间":null,
"VRURL":null,
"CGCSLNG":"108.149558293585",
"CGCSLAT":"34.3020730496799"
},
{
"POORLON":"108.10137",
"POORLAT":"34.433365",
"VILLAGE_ID":"610431004013",
"VILLAGE_NAME":"铁陈村委会",
"AREA_DESC":"咸阳市-武功县-苏坊镇",
"村主导产业类型":"养殖业",
"主导产业带动户数":"41",
"主导产业带动收益":"0",
"新型经营主体带动总户数":"41",
"新型经营主体带动总收入":"0",
"采集时间":null,
"VRURL":"http:\/\/61.185.20.147:8080\/xml\/village\/5bc68291ebb5fbbb48bc5eda04b59ae2\/",
"CGCSLNG":"108.10137",
"CGCSLAT":"34.433365"
},
{
"POORLON":"108.309329447746",
"POORLAT":"34.2442421865081",
"VILLAGE_ID":"610481008003",
"VILLAGE_NAME":"苟家坡村委会",
"AREA_DESC":"咸阳市-兴平市-桑镇",
"村主导产业类型":"养殖业",
"主导产业带动户数":"60",
"主导产业带动收益":"0",
"新型经营主体带动总户数":"0",
"新型经营主体带动总收入":"0",
"采集时间":null,
"VRURL":null,
"CGCSLNG":"108.309329447746",
"CGCSLAT":"34.2442421865081"
},
{
"POORLON":"108.363822",
"POORLAT":"34.308308",
"VILLAGE_ID":"610481012016",
"VILLAGE_NAME":"桑园村",
"AREA_DESC":"咸阳市-兴平市-赵村镇",
"村主导产业类型":"养殖业",
"主导产业带动户数":"120",
"主导产业带动收益":"0",
"新型经营主体带动总户数":"120",
"新型经营主体带动总收入":"0",
"采集时间":null,
"VRURL":null,
"CGCSLNG":"108.363822",
"CGCSLAT":"34.308308"
},
{
"POORLON":"108.470228092671",
"POORLAT":"34.2880898102807",
"VILLAGE_ID":"610481010005",
"VILLAGE_NAME":"官庄村委会",
"AREA_DESC":"咸阳市-兴平市-西城街道",
"村主导产业类型":"养殖业",
"主导产业带动户数":"60",
"主导产业带动收益":"0",
"新型经营主体带动总户数":"60",
"新型经营主体带动总收入":"0",
"采集时间":null,
"VRURL":null,
"CGCSLNG":"108.470228092671",
"CGCSLAT":"34.2880898102807"
},
{
"POORLON":"108.621296034506",
"POORLAT":"34.6684661827737",
"VILLAGE_ID":"610423010021",
"VILLAGE_NAME":"宗家沟村委会",
"AREA_DESC":"咸阳市-泾阳县-兴隆镇",
"村主导产业类型":"养殖业",
"主导产业带动户数":"150",
"主导产业带动收益":"0",
"新型经营主体带动总户数":"150",
"新型经营主体带动总收入":"0",
"采集时间":null,
"VRURL":null,
"CGCSLNG":"108.621296034506",
"CGCSLAT":"34.6684661827737"
},
{
"POORLON":"108.73526",
"POORLAT":"34.6329",
"VILLAGE_ID":"610423012015",
"VILLAGE_NAME":"三里村委会",
"AREA_DESC":"咸阳市-泾阳县-云阳镇",
"村主导产业类型":"养殖业",
"主导产业带动户数":"84",
"主导产业带动收益":"0",
"新型经营主体带动总户数":"84",
"新型经营主体带动总收入":"0",
"采集时间":null,
"VRURL":null,
"CGCSLNG":"108.73526",
"CGCSLAT":"34.6329"
},
{
"POORLON":"108.8036",
"POORLAT":"34.58025",
"VILLAGE_ID":"610423013015",
"VILLAGE_NAME":"西鸟村委会",
"AREA_DESC":"咸阳市-泾阳县-中张镇",
"村主导产业类型":"养殖业",
"主导产业带动户数":"62",
"主导产业带动收益":"0",
"新型经营主体带动总户数":"62",
"新型经营主体带动总收入":"0",
"采集时间":null,
"VRURL":null,
"CGCSLNG":"108.8036",
"CGCSLAT":"34.58025"
},
{
"POORLON":"108.55305",
"POORLAT":"34.62579",
"VILLAGE_ID":"610425010046",
"VILLAGE_NAME":"韩窑村委会",
"AREA_DESC":"咸阳市-礼泉县-烟霞镇",
"村主导产业类型":"养殖业",
"主导产业带动户数":"44",
"主导产业带动收益":"0",
"新型经营主体带动总户数":"60",
"新型经营主体带动总收入":"0",
"采集时间":null,
"VRURL":"http:\/\/61.185.20.147:8080\/xml\/village\/7436cffc660dcb6dcebb5398b56e4e20\/",
"CGCSLNG":"108.55305",
"CGCSLAT":"34.62579"
},
{
"POORLON":"108.438276",
"POORLAT":"34.655508",
"VILLAGE_ID":"610425011019",
"VILLAGE_NAME":"坡北村委会",
"AREA_DESC":"咸阳市-礼泉县-昭陵镇",
"村主导产业类型":"养殖业",
"主导产业带动户数":"133",
"主导产业带动收益":"0",
"新型经营主体带动总户数":"40",
"新型经营主体带动总收入":"0",
"采集时间":null,
"VRURL":null,
"CGCSLNG":"108.438276",
"CGCSLAT":"34.655508"
},
{
"POORLON":"108.394880507157",
"POORLAT":"34.642020092114",
"VILLAGE_ID":"610425011005",
"VILLAGE_NAME":"冯马村委会",
"AREA_DESC":"咸阳市-礼泉县-昭陵镇",
"村主导产业类型":"养殖业",
"主导产业带动户数":"27",
"主导产业带动收益":"0",
"新型经营主体带动总户数":"27",
"新型经营主体带动总收入":"0",
"采集时间":null,
"VRURL":null,
"CGCSLNG":"108.394880507157",
"CGCSLAT":"34.642020092114"
},
{
"POORLON":"107.847468017196",
"POORLAT":"35.047412974205",
"VILLAGE_ID":"610428006002",
"VILLAGE_NAME":"安里村委会",
"AREA_DESC":"咸阳市-长武县-亭口镇",
"村主导产业类型":"养殖业",
"主导产业带动户数":"32",
"主导产业带动收益":"104000",
"新型经营主体带动总户数":"0",
"新型经营主体带动总收入":"0",
"采集时间":null,
"VRURL":"http:\/\/61.185.20.147:8080\/xml\/village\/e756de98570eb0b4c12feea419a97005\/",
"CGCSLNG":"107.847468017196",
"CGCSLAT":"35.047412974205"
},
{
"POORLON":"108.23123",
"POORLAT":"35.15932",
"VILLAGE_ID":"610429006023",
"VILLAGE_NAME":"杏坡村委会",
"AREA_DESC":"咸阳市-旬邑县-太村镇",
"村主导产业类型":"养殖业",
"主导产业带动户数":"3",
"主导产业带动收益":"4000",
"新型经营主体带动总户数":"0",
"新型经营主体带动总收入":"0",
"采集时间":null,
"VRURL":"http:\/\/61.185.20.147:8080\/xml\/village\/a5768657939ae5704ac239108dcb73aa\/",
"CGCSLNG":"108.23123",
"CGCSLAT":"35.15932"
},
{
"POORLON":"108.29812",
"POORLAT":"35.18216",
"VILLAGE_ID":"610429006015",
"VILLAGE_NAME":"罗家村委会",
"AREA_DESC":"咸阳市-旬邑县-太村镇",
"村主导产业类型":"养殖业",
"主导产业带动户数":"38",
"主导产业带动收益":"285000",
"新型经营主体带动总户数":"0",
"新型经营主体带动总收入":"0",
"采集时间":null,
"VRURL":"http:\/\/61.185.20.147:8080\/xml\/village\/2b38679d36f518ac9ebde0d0eefbd27e\/",
"CGCSLNG":"108.29812",
"CGCSLAT":"35.18216"
},
{
"POORLON":"108.521919553572",
"POORLAT":"34.2463241149934",
"VILLAGE_ID":"610481004027",
"VILLAGE_NAME":"张耳村委会",
"AREA_DESC":"咸阳市-兴平市-阜寨镇",
"村主导产业类型":"养殖业",
"主导产业带动户数":"11",
"主导产业带动收益":"16324",
"新型经营主体带动总户数":"22",
"新型经营主体带动总收入":"11000",
"采集时间":null,
"VRURL":null,
"CGCSLNG":"108.521919553572",
"CGCSLAT":"34.2463241149934"
},
{
"POORLON":"108.43728",
"POORLAT":"34.313324",
"VILLAGE_ID":"610481010003",
"VILLAGE_NAME":"北汤台村委会",
"AREA_DESC":"咸阳市-兴平市-西城街道",
"村主导产业类型":"养殖业",
"主导产业带动户数":"15",
"主导产业带动收益":"0",
"新型经营主体带动总户数":"14",
"新型经营主体带动总收入":"0",
"采集时间":null,
"VRURL":null,
"CGCSLNG":"108.43728",
"CGCSLAT":"34.313324"
},
{
"POORLON":"108.854576",
"POORLAT":"34.567",
"VILLAGE_ID":"610423007001",
"VILLAGE_NAME":"白杨村委会",
"AREA_DESC":"咸阳市-泾阳县-三渠镇",
"村主导产业类型":"养殖业",
"主导产业带动户数":"20",
"主导产业带动收益":"29000",
"新型经营主体带动总户数":"20",
"新型经营主体带动总收入":"12137",
"采集时间":null,
"VRURL":null,
"CGCSLNG":"108.854576",
"CGCSLAT":"34.567"
},
{
"POORLON":"108.507128176035",
"POORLAT":"34.4745058865652",
"VILLAGE_ID":"610425001030",
"VILLAGE_NAME":"康村委会",
"AREA_DESC":"咸阳市-礼泉县-城关街道办",
"村主导产业类型":"养殖业",
"主导产业带动户数":"52",
"主导产业带动收益":"0",
"新型经营主体带动总户数":"0",
"新型经营主体带动总收入":"0",
"采集时间":null,
"VRURL":null,
"CGCSLNG":"108.507128176035",
"CGCSLAT":"34.4745058865652"
},
{
"POORLON":"108.466125",
"POORLAT":"34.71072",
"VILLAGE_ID":"610425002016",
"VILLAGE_NAME":"刘家村委会",
"AREA_DESC":"咸阳市-礼泉县-叱干镇",
"村主导产业类型":"养殖业",
"主导产业带动户数":"50",
"主导产业带动收益":"0",
"新型经营主体带动总户数":"50",
"新型经营主体带动总收入":"0",
"采集时间":null,
"VRURL":"http:\/\/61.185.20.147:8080\/xml\/village\/26843b3c52a974da9d3c085a78041f2f\/",
"CGCSLNG":"108.466125",
"CGCSLAT":"34.71072"
},
{
"POORLON":"108.47085901305",
"POORLAT":"34.7017339706946",
"VILLAGE_ID":"610425002032",
"VILLAGE_NAME":"相家村委会",
"AREA_DESC":"咸阳市-礼泉县-叱干镇",
"村主导产业类型":"养殖业",
"主导产业带动户数":"38",
"主导产业带动收益":"155000",
"新型经营主体带动总户数":"0",
"新型经营主体带动总收入":"0",
"采集时间":null,
"VRURL":"http:\/\/61.185.20.147:8080\/xml\/village\/7fcceb8d8477cd2649464397384c0d63\/",
"CGCSLNG":"108.47085901305",
"CGCSLAT":"34.7017339706946"
},
{
"POORLON":"108.270943117141",
"POORLAT":"34.8384883004699",
"VILLAGE_ID":"610426001028",
"VILLAGE_NAME":"下邑村委会",
"AREA_DESC":"咸阳市-永寿县-常宁镇",
"村主导产业类型":"养殖业",
"主导产业带动户数":"27",
"主导产业带动收益":"0",
"新型经营主体带动总户数":"0",
"新型经营主体带动总收入":"0",
"采集时间":null,
"VRURL":null,
"CGCSLNG":"108.270943117141",
"CGCSLAT":"34.8384883004699"
},
{
"POORLON":"107.808100523143",
"POORLAT":"35.2404404292706",
"VILLAGE_ID":"610428005019",
"VILLAGE_NAME":"南峪村委会",
"AREA_DESC":"咸阳市-长武县-彭公镇",
"村主导产业类型":"养殖业",
"主导产业带动户数":"55",
"主导产业带动收益":"120",
"新型经营主体带动总户数":"75",
"新型经营主体带动总收入":"120",
"采集时间":null,
"VRURL":"http:\/\/61.185.20.147:8080\/xml\/village\/87116dedb96d7a46d22d09995adf6d17\/",
"CGCSLNG":"107.808100523143",
"CGCSLAT":"35.2404404292706"
},
{
"POORLON":"107.819363046068",
"POORLAT":"35.0895202073146",
"VILLAGE_ID":"610428004009",
"VILLAGE_NAME":"强村委会",
"AREA_DESC":"咸阳市-长武县-巨家镇",
"村主导产业类型":"养殖业",
"主导产业带动户数":"33",
"主导产业带动收益":"81050.5",
"新型经营主体带动总户数":"66",
"新型经营主体带动总收入":"11000",
"采集时间":null,
"VRURL":"http:\/\/61.185.20.147:8080\/xml\/village\/1499f5bcc60b61760d6d9f11e34f3c47\/",
"CGCSLNG":"107.819363046068",
"CGCSLAT":"35.0895202073146"
},
{
"POORLON":"108.35886",
"POORLAT":"34.25581",
"VILLAGE_ID":"610481009013",
"VILLAGE_NAME":"五丰村委会",
"AREA_DESC":"咸阳市-兴平市-汤坊镇",
"村主导产业类型":"养殖业",
"主导产业带动户数":"8",
"主导产业带动收益":"0",
"新型经营主体带动总户数":"8",
"新型经营主体带动总收入":"0",
"采集时间":null,
"VRURL":null,
"CGCSLNG":"108.35886",
"CGCSLAT":"34.25581"
},
{
"POORLON":"108.163203805754",
"POORLAT":"35.2638013118722",
"VILLAGE_ID":"610429002004",
"VILLAGE_NAME":"东牛村委会",
"AREA_DESC":"咸阳市-旬邑县-底庙镇",
"村主导产业类型":"养殖业",
"主导产业带动户数":"70",
"主导产业带动收益":"25480",
"新型经营主体带动总户数":"115",
"新型经营主体带动总收入":"101980",
"采集时间":null,
"VRURL":"http:\/\/61.185.20.147:8080\/xml\/village\/64fdde119a16ea6fd2b6a5fa75a1ca7a\/",
"CGCSLNG":"108.163203805754",
"CGCSLAT":"35.2638013118722"
},
{
"POORLON":"108.266221225565",
"POORLAT":"35.1374901557635",
"VILLAGE_ID":"610429010006",
"VILLAGE_NAME":"仁安村委会",
"AREA_DESC":"咸阳市-旬邑县-郑家镇",
"村主导产业类型":"养殖业",
"主导产业带动户数":"67",
"主导产业带动收益":"25480",
"新型经营主体带动总户数":"67",
"新型经营主体带动总收入":"25480",
"采集时间":null,
"VRURL":"http:\/\/61.185.20.147:8080\/xml\/village\/ce50c29e147bf03e74d78c40f7bbf3b0\/",
"CGCSLNG":"108.266221225565",
"CGCSLAT":"35.1374901557635"
},
{
"POORLON":"108.875877380371",
"POORLAT":"34.5692672729492",
"VILLAGE_ID":"610423007011",
"VILLAGE_NAME":"史王村委会",
"AREA_DESC":"咸阳市-泾阳县-三渠镇",
"村主导产业类型":"养殖业",
"主导产业带动户数":"23",
"主导产业带动收益":"0",
"新型经营主体带动总户数":"0",
"新型经营主体带动总收入":"0",
"采集时间":null,
"VRURL":null,
"CGCSLNG":"108.875877380371",
"CGCSLAT":"34.5692672729492"
},
{
"POORLON":"108.92745512408",
"POORLAT":"34.5809719630598",
"VILLAGE_ID":"610423007015",
"VILLAGE_NAME":"兴华村委会",
"AREA_DESC":"咸阳市-泾阳县-三渠镇",
"村主导产业类型":"养殖业",
"主导产业带动户数":"25",
"主导产业带动收益":"0",
"新型经营主体带动总户数":"0",
"新型经营主体带动总收入":"0",
"采集时间":null,
"VRURL":null,
"CGCSLNG":"108.92745512408",
"CGCSLAT":"34.5809719630598"
},
{
"POORLON":"108.658246844933",
"POORLAT":"34.6749199178842",
"VILLAGE_ID":"610423010014",
"VILLAGE_NAME":"寺底何村委会",
"AREA_DESC":"咸阳市-泾阳县-兴隆镇",
"村主导产业类型":"养殖业",
"主导产业带动户数":"19",
"主导产业带动收益":"0",
"新型经营主体带动总户数":"3",
"新型经营主体带动总收入":"0",
"采集时间":null,
"VRURL":null,
"CGCSLNG":"108.658246844933",
"CGCSLAT":"34.6749199178842"
},
{
"POORLON":"108.784527134895",
"POORLAT":"34.5152124047279",
"VILLAGE_ID":"610423013006",
"VILLAGE_NAME":"罗堡村委会",
"AREA_DESC":"咸阳市-泾阳县-中张镇",
"村主导产业类型":"养殖业",
"主导产业带动户数":"17",
"主导产业带动收益":"0",
"新型经营主体带动总户数":"33",
"新型经营主体带动总收入":"0",
"采集时间":null,
"VRURL":null,
"CGCSLNG":"108.784527134895",
"CGCSLAT":"34.5152124047279"
},
{
"POORLON":"108.278529",
"POORLAT":"34.2882\t",
"VILLAGE_ID":"610431001027",
"VILLAGE_NAME":"新城村委会",
"AREA_DESC":"咸阳市-武功县-长宁镇",
"村主导产业类型":"养殖业",
"主导产业带动户数":"30",
"主导产业带动收益":"240000",
"新型经营主体带动总户数":"0",
"新型经营主体带动总收入":"0",
"采集时间":null,
"VRURL":null,
"CGCSLNG":"108.278529",
"CGCSLAT":"34.2882\t"
},
{
"POORLON":"108.252728701323",
"POORLAT":"34.3428080755189",
"VILLAGE_ID":"610431009006",
"VILLAGE_NAME":"咬马村委会",
"AREA_DESC":"咸阳市-武功县-长宁镇河道三农发展服务中心",
"村主导产业类型":"养殖业",
"主导产业带动户数":"35",
"主导产业带动收益":"0",
"新型经营主体带动总户数":"35",
"新型经营主体带动总收入":"0",
"采集时间":null,
"VRURL":"http:\/\/61.185.20.147:8080\/xml\/village\/53021bc01044513061a2eb02b9c854fd\/",
"CGCSLNG":"108.252728701323",
"CGCSLAT":"34.3428080755189"
},
{
"POORLON":"108.315714240424",
"POORLAT":"34.2527665756032",
"VILLAGE_ID":"610481008015",
"VILLAGE_NAME":"祝原村委会",
"AREA_DESC":"咸阳市-兴平市-桑镇",
"村主导产业类型":"养殖业",
"主导产业带动户数":"33",
"主导产业带动收益":"20000",
"新型经营主体带动总户数":"47",
"新型经营主体带动总收入":"0",
"采集时间":null,
"VRURL":null,
"CGCSLNG":"108.315714240424",
"CGCSLAT":"34.2527665756032"
},
{
"POORLON":"108.363982594276",
"POORLAT":"34.2648405506707",
"VILLAGE_ID":"610481008017",
"VILLAGE_NAME":"小赵村",
"AREA_DESC":"咸阳市-兴平市-桑镇",
"村主导产业类型":"养殖业",
"主导产业带动户数":"97",
"主导产业带动收益":"50000",
"新型经营主体带动总户数":"44",
"新型经营主体带动总收入":"0",
"采集时间":null,
"VRURL":null,
"CGCSLNG":"108.363982594276",
"CGCSLAT":"34.2648405506707"
},
{
"POORLON":"108.37464",
"POORLAT":"34.243107",
"VILLAGE_ID":"610481009007",
"VILLAGE_NAME":"南安谷村委会",
"AREA_DESC":"咸阳市-兴平市-汤坊镇",
"村主导产业类型":"养殖业",
"主导产业带动户数":"43",
"主导产业带动收益":"0",
"新型经营主体带动总户数":"43",
"新型经营主体带动总收入":"0",
"采集时间":null,
"VRURL":null,
"CGCSLNG":"108.37464",
"CGCSLAT":"34.243107"
},
{
"POORLON":"108.44426",
"POORLAT":"34.514587",
"VILLAGE_ID":"610425001076",
"VILLAGE_NAME":"鸿雁村",
"AREA_DESC":"咸阳市-礼泉县-城关街道办",
"村主导产业类型":"养殖业",
"主导产业带动户数":"69",
"主导产业带动收益":"40000",
"新型经营主体带动总户数":"0",
"新型经营主体带动总收入":"0",
"采集时间":null,
"VRURL":null,
"CGCSLNG":"108.44426",
"CGCSLAT":"34.514587"
}
]
}