{
"RECORDS":[
{
"FAMILY_ID":"5700000106658407",
"HOUSEHOLDERNAME":"任养纯",
"RANLIAO":"其他",
"POORLAT":35.2042617797852,
"POORLON":108.373741149902
},
{
"FAMILY_ID":"100000209403075",
"HOUSEHOLDERNAME":"燕宏超",
"RANLIAO":"其他",
"POORLAT":35.094566898234,
"POORLON":108.219577343459
},
{
"FAMILY_ID":"5700000106102690",
"HOUSEHOLDERNAME":"杜进宝",
"RANLIAO":"其他",
"POORLAT":35.103714,
"POORLON":108.361465
},
{
"FAMILY_ID":"100000258157642",
"HOUSEHOLDERNAME":"王忠诚",
"RANLIAO":"其他",
"POORLAT":35.10965,
"POORLON":108.32943
},
{
"FAMILY_ID":"100000189990479",
"HOUSEHOLDERNAME":"曹红伟",
"RANLIAO":"其他",
"POORLAT":35.2173399925232,
"POORLON":108.276953101158
},
{
"FAMILY_ID":"5700000027598268",
"HOUSEHOLDERNAME":"代竹叶",
"RANLIAO":"其他",
"POORLAT":35.2111792564392,
"POORLON":108.274577021599
},
{
"FAMILY_ID":"100000162431480",
"HOUSEHOLDERNAME":"刘西勤",
"RANLIAO":"其他",
"POORLAT":35.187088,
"POORLON":108.338425
},
{
"FAMILY_ID":"100000162656038",
"HOUSEHOLDERNAME":"刘耀文",
"RANLIAO":"其他",
"POORLAT":35.18722,
"POORLON":108.33801
},
{
"FAMILY_ID":"3117480758",
"HOUSEHOLDERNAME":"郭小锋",
"RANLIAO":"其他",
"POORLAT":35.060562,
"POORLON":108.28837
},
{
"FAMILY_ID":"5700000116496758",
"HOUSEHOLDERNAME":"乔锋利",
"RANLIAO":"其他",
"POORLAT":35.176,
"POORLON":108.3443
},
{
"FAMILY_ID":"5700000114780115",
"HOUSEHOLDERNAME":"朱建平",
"RANLIAO":"其他",
"POORLAT":34.9898487553103,
"POORLON":108.253888295424
},
{
"FAMILY_ID":"5700000113318468",
"HOUSEHOLDERNAME":"张玉川",
"RANLIAO":"其他",
"POORLAT":35.2146723270416,
"POORLON":108.405104994774
},
{
"FAMILY_ID":"5700000116631283",
"HOUSEHOLDERNAME":"曹东锋",
"RANLIAO":"其他",
"POORLAT":35.1480935858965,
"POORLON":108.222005829566
},
{
"FAMILY_ID":"100000255985683",
"HOUSEHOLDERNAME":"姚得民",
"RANLIAO":"其他",
"POORLAT":35.2185507407007,
"POORLON":108.400941595532
},
{
"FAMILY_ID":"100000255390492",
"HOUSEHOLDERNAME":"王竹连",
"RANLIAO":"其他",
"POORLAT":35.1483880758286,
"POORLON":108.292454936355
},
{
"FAMILY_ID":"5700000106237539",
"HOUSEHOLDERNAME":"田进群",
"RANLIAO":"其他",
"POORLAT":35.2337121963501,
"POORLON":108.308971524239
},
{
"FAMILY_ID":"5700000129255512",
"HOUSEHOLDERNAME":"王润民",
"RANLIAO":"其他",
"POORLAT":35.15505,
"POORLON":108.30345
},
{
"FAMILY_ID":"5700000125001986",
"HOUSEHOLDERNAME":"杜怀民",
"RANLIAO":"其他",
"POORLAT":35.1846191015053,
"POORLON":108.335842734146
},
{
"FAMILY_ID":"100000198588751",
"HOUSEHOLDERNAME":"宁书霞",
"RANLIAO":"其他",
"POORLAT":35.0328982223779,
"POORLON":108.214171747236
},
{
"FAMILY_ID":"5700000135046290",
"HOUSEHOLDERNAME":"杨平印",
"RANLIAO":"其他",
"POORLAT":35.1769160509109,
"POORLON":108.250579786301
},
{
"FAMILY_ID":"100000193962126",
"HOUSEHOLDERNAME":"岳志民",
"RANLIAO":"其他",
"POORLAT":35.0417443600313,
"POORLON":108.243862345047
},
{
"FAMILY_ID":"100000303732858",
"HOUSEHOLDERNAME":"潘永辉",
"RANLIAO":"其他",
"POORLAT":35.0665672482007,
"POORLON":108.217574524368
},
{
"FAMILY_ID":"100000180666274",
"HOUSEHOLDERNAME":"燕呆有",
"RANLIAO":"其他",
"POORLAT":35.1476093018833,
"POORLON":108.293363301289
},
{
"FAMILY_ID":"5700000125487511",
"HOUSEHOLDERNAME":"郝喜民",
"RANLIAO":"其他",
"POORLAT":35.0378268304714,
"POORLON":108.273022488405
},
{
"FAMILY_ID":"100000168851436",
"HOUSEHOLDERNAME":"李余良",
"RANLIAO":"其他",
"POORLAT":35.1477001575216,
"POORLON":108.293433765044
},
{
"FAMILY_ID":"5700000123812215",
"HOUSEHOLDERNAME":"潘巧梅",
"RANLIAO":"其他",
"POORLAT":35.0498023174357,
"POORLON":108.246031342965
},
{
"FAMILY_ID":"100000255284693",
"HOUSEHOLDERNAME":"王满年",
"RANLIAO":"其他",
"POORLAT":35.1482902956136,
"POORLON":108.292831697507
},
{
"FAMILY_ID":"5700000133748313",
"HOUSEHOLDERNAME":"肖海峰",
"RANLIAO":"其他",
"POORLAT":35.1135202646255,
"POORLON":108.286281466484
},
{
"FAMILY_ID":"3117419279",
"HOUSEHOLDERNAME":"南志忠",
"RANLIAO":"其他",
"POORLAT":34.69105,
"POORLON":108.14747
},
{
"FAMILY_ID":"5700000103450103",
"HOUSEHOLDERNAME":"吕忠安",
"RANLIAO":"其他",
"POORLAT":34.718987,
"POORLON":108.064644
},
{
"FAMILY_ID":"5700000104516668",
"HOUSEHOLDERNAME":"朱清芳",
"RANLIAO":"其他",
"POORLAT":34.6939149415681,
"POORLON":108.147991069382
},
{
"FAMILY_ID":"5700000103600957",
"HOUSEHOLDERNAME":"宁维岗",
"RANLIAO":"其他",
"POORLAT":34.832123,
"POORLON":108.214676
},
{
"FAMILY_ID":"5700000104644910",
"HOUSEHOLDERNAME":"岳毛旦",
"RANLIAO":"其他",
"POORLAT":35.1032117521995,
"POORLON":107.932172565447
},
{
"FAMILY_ID":"3117439711",
"HOUSEHOLDERNAME":"周红",
"RANLIAO":"其他",
"POORLAT":34.6940486907959,
"POORLON":108.132653784752
},
{
"FAMILY_ID":"5700000005487984",
"HOUSEHOLDERNAME":"鱼小刚",
"RANLIAO":"其他",
"POORLAT":null,
"POORLON":null
},
{
"FAMILY_ID":"100000270774627",
"HOUSEHOLDERNAME":"曹毛牛",
"RANLIAO":"其他",
"POORLAT":35.1932907104492,
"POORLON":107.820808410645
},
{
"FAMILY_ID":"100000150385296",
"HOUSEHOLDERNAME":"赵辛",
"RANLIAO":"其他",
"POORLAT":34.6941559791565,
"POORLON":108.134037804604
},
{
"FAMILY_ID":"3117420885",
"HOUSEHOLDERNAME":"王喜绒",
"RANLIAO":"其他",
"POORLAT":34.6943920135498,
"POORLON":108.131146383286
},
{
"FAMILY_ID":"100000285685536",
"HOUSEHOLDERNAME":"长孙学锋",
"RANLIAO":"其他",
"POORLAT":34.858337,
"POORLON":108.157646
},
{
"FAMILY_ID":"5700000105010910",
"HOUSEHOLDERNAME":"安永平",
"RANLIAO":"其他",
"POORLAT":34.7476499557495,
"POORLON":108.150350999832
},
{
"FAMILY_ID":"5700000122140490",
"HOUSEHOLDERNAME":"朱田兴",
"RANLIAO":"其他",
"POORLAT":34.681713104248,
"POORLON":108.115982055664
},
{
"FAMILY_ID":"5700000106525938",
"HOUSEHOLDERNAME":"张继锋",
"RANLIAO":"其他",
"POORLAT":34.7602101223242,
"POORLON":108.140757091654
},
{
"FAMILY_ID":"100000144253848",
"HOUSEHOLDERNAME":"张会生",
"RANLIAO":"其他",
"POORLAT":34.8698642728915,
"POORLON":108.205966818202
},
{
"FAMILY_ID":"5700000110557618",
"HOUSEHOLDERNAME":"王亚鹏",
"RANLIAO":"其他",
"POORLAT":34.8126070689565,
"POORLON":108.041360423483
},
{
"FAMILY_ID":"5700000122527035",
"HOUSEHOLDERNAME":"赵玉平",
"RANLIAO":"其他",
"POORLAT":34.8250700690202,
"POORLON":107.994005036354
},
{
"FAMILY_ID":"5700000033763179",
"HOUSEHOLDERNAME":"孙小林",
"RANLIAO":"其他",
"POORLAT":34.7716463876595,
"POORLON":108.127982766711
},
{
"FAMILY_ID":"100000154969593",
"HOUSEHOLDERNAME":"董栓栓",
"RANLIAO":"其他",
"POORLAT":34.7004647322262,
"POORLON":108.108589147952
},
{
"FAMILY_ID":"100000127137383",
"HOUSEHOLDERNAME":"张秀侠",
"RANLIAO":"其他",
"POORLAT":34.8992543141556,
"POORLON":108.088749909401
},
{
"FAMILY_ID":"100000267499763",
"HOUSEHOLDERNAME":"马粉莲",
"RANLIAO":"其他",
"POORLAT":null,
"POORLON":null
},
{
"FAMILY_ID":"100000287301060",
"HOUSEHOLDERNAME":"王红刚",
"RANLIAO":"其他",
"POORLAT":null,
"POORLON":null
},
{
"FAMILY_ID":"5700000109967946",
"HOUSEHOLDERNAME":"李永刚",
"RANLIAO":"其他",
"POORLAT":35.03122,
"POORLON":107.8235
},
{
"FAMILY_ID":"5700000104416864",
"HOUSEHOLDERNAME":"长孙学孔",
"RANLIAO":"其他",
"POORLAT":34.857414,
"POORLON":108.157486
},
{
"FAMILY_ID":"100000134621923",
"HOUSEHOLDERNAME":"李庆辉",
"RANLIAO":"其他",
"POORLAT":35.1681514978409,
"POORLON":107.868449449539
},
{
"FAMILY_ID":"5700000105884894",
"HOUSEHOLDERNAME":"李保荣",
"RANLIAO":"其他",
"POORLAT":null,
"POORLON":null
},
{
"FAMILY_ID":"5700000113159010",
"HOUSEHOLDERNAME":"张桂仙",
"RANLIAO":"其他",
"POORLAT":35.2910956022455,
"POORLON":107.76748379101
},
{
"FAMILY_ID":"100000150746172",
"HOUSEHOLDERNAME":"王俊仕",
"RANLIAO":"其他",
"POORLAT":34.927944561336,
"POORLON":108.307999125031
},
{
"FAMILY_ID":"100000139589735",
"HOUSEHOLDERNAME":"王科民",
"RANLIAO":"其他",
"POORLAT":34.5363557751913,
"POORLON":108.161320649533
},
{
"FAMILY_ID":"100000253058586",
"HOUSEHOLDERNAME":"李小刚",
"RANLIAO":"其他",
"POORLAT":34.3087963135639,
"POORLON":108.195255623017
},
{
"FAMILY_ID":"100000116251895",
"HOUSEHOLDERNAME":"桂芝昌",
"RANLIAO":"其他",
"POORLAT":34.3786156243942,
"POORLON":108.179411430911
},
{
"FAMILY_ID":"100000154181180",
"HOUSEHOLDERNAME":"李丙林",
"RANLIAO":"其他",
"POORLAT":null,
"POORLON":null
},
{
"FAMILY_ID":"100000275859446",
"HOUSEHOLDERNAME":"王世英",
"RANLIAO":"其他",
"POORLAT":34.4982908964157,
"POORLON":108.145738124847
},
{
"FAMILY_ID":"3117364869",
"HOUSEHOLDERNAME":"王牛牛",
"RANLIAO":"其他",
"POORLAT":34.9278186393114,
"POORLON":108.309541280508
},
{
"FAMILY_ID":"3117408384",
"HOUSEHOLDERNAME":"杨志荣",
"RANLIAO":"其他",
"POORLAT":34.5846391018524,
"POORLON":108.176923906746
},
{
"FAMILY_ID":"3117449729",
"HOUSEHOLDERNAME":"金卫国",
"RANLIAO":"其他",
"POORLAT":34.253227,
"POORLON":108.26914
},
{
"FAMILY_ID":"5700000104357479",
"HOUSEHOLDERNAME":"李文娃",
"RANLIAO":"其他",
"POORLAT":34.309006,
"POORLON":108.19309
},
{
"FAMILY_ID":"5700000104406138",
"HOUSEHOLDERNAME":"张佳森",
"RANLIAO":"其他",
"POORLAT":34.5000396622517,
"POORLON":108.344530298585
},
{
"FAMILY_ID":"100000099138234",
"HOUSEHOLDERNAME":"何汉兴",
"RANLIAO":"其他",
"POORLAT":34.4984004633832,
"POORLON":108.128499496724
},
{
"FAMILY_ID":"3117514591",
"HOUSEHOLDERNAME":"刘科科",
"RANLIAO":"其他",
"POORLAT":35.1340466871719,
"POORLON":107.997677915344
},
{
"FAMILY_ID":"100000282817243",
"HOUSEHOLDERNAME":"李青洲",
"RANLIAO":"其他",
"POORLAT":34.3241106930542,
"POORLON":108.190245959949
},
{
"FAMILY_ID":"100000114199187",
"HOUSEHOLDERNAME":"亓党柱",
"RANLIAO":"其他",
"POORLAT":34.4062347412109,
"POORLON":108.183654785156
},
{
"FAMILY_ID":"100000149857733",
"HOUSEHOLDERNAME":"杨满仓",
"RANLIAO":"其他",
"POORLAT":null,
"POORLON":null
},
{
"FAMILY_ID":"5700000106735001",
"HOUSEHOLDERNAME":"徐新委",
"RANLIAO":"其他",
"POORLAT":34.6507618630651,
"POORLON":108.273737027013
},
{
"FAMILY_ID":"5700000106639766",
"HOUSEHOLDERNAME":"孟小良",
"RANLIAO":"其他",
"POORLAT":34.6540703773499,
"POORLON":108.05338871479
},
{
"FAMILY_ID":"100000148251638",
"HOUSEHOLDERNAME":"杨震",
"RANLIAO":"其他",
"POORLAT":34.6020864725113,
"POORLON":108.178959441185
},
{
"FAMILY_ID":"100000160182531",
"HOUSEHOLDERNAME":"徐青",
"RANLIAO":"其他",
"POORLAT":34.9876171350479,
"POORLON":107.897833347321
},
{
"FAMILY_ID":"100000122823743",
"HOUSEHOLDERNAME":"王孝歌",
"RANLIAO":"其他",
"POORLAT":34.25367,
"POORLON":108.26917
},
{
"FAMILY_ID":"100000115922043",
"HOUSEHOLDERNAME":"梁卫国",
"RANLIAO":"其他",
"POORLAT":34.376934,
"POORLON":108.18091
},
{
"FAMILY_ID":"5700000113525941",
"HOUSEHOLDERNAME":"马引传",
"RANLIAO":"其他",
"POORLAT":34.3538083452111,
"POORLON":108.251961250185
},
{
"FAMILY_ID":"100000114523484",
"HOUSEHOLDERNAME":"巨署伏",
"RANLIAO":"其他",
"POORLAT":34.4065971374512,
"POORLON":108.18229675293
},
{
"FAMILY_ID":"100000145608936",
"HOUSEHOLDERNAME":"赵建国",
"RANLIAO":"其他",
"POORLAT":34.4631437202377,
"POORLON":108.303777347221
},
{
"FAMILY_ID":"100000150882029",
"HOUSEHOLDERNAME":"王幸毕",
"RANLIAO":"其他",
"POORLAT":null,
"POORLON":null
},
{
"FAMILY_ID":"3117381091",
"HOUSEHOLDERNAME":"田高俊",
"RANLIAO":"其他",
"POORLAT":34.27737,
"POORLON":108.34283
},
{
"FAMILY_ID":"100000145802243",
"HOUSEHOLDERNAME":"郭彬彬",
"RANLIAO":"其他",
"POORLAT":35.0228116785322,
"POORLON":108.128304238626
},
{
"FAMILY_ID":"100000144936842",
"HOUSEHOLDERNAME":"李科科",
"RANLIAO":"其他",
"POORLAT":35.1300026400636,
"POORLON":107.999048910426
},
{
"FAMILY_ID":"5700000103920201",
"HOUSEHOLDERNAME":"赵英茂",
"RANLIAO":"其他",
"POORLAT":34.31724,
"POORLON":108.20502
},
{
"FAMILY_ID":"100000258216809",
"HOUSEHOLDERNAME":"张军正",
"RANLIAO":"其他",
"POORLAT":34.3474728363937,
"POORLON":108.058948637344
},
{
"FAMILY_ID":"100000394657667",
"HOUSEHOLDERNAME":"王西军",
"RANLIAO":"其他",
"POORLAT":34.9583877534316,
"POORLON":108.146258574203
},
{
"FAMILY_ID":"100000148611841",
"HOUSEHOLDERNAME":"霍红旺",
"RANLIAO":"其他",
"POORLAT":35.1437027622753,
"POORLON":108.12111050469
},
{
"FAMILY_ID":"5700000105729701",
"HOUSEHOLDERNAME":"王千生",
"RANLIAO":"其他",
"POORLAT":null,
"POORLON":null
},
{
"FAMILY_ID":"100000148677008",
"HOUSEHOLDERNAME":"纪乖乖",
"RANLIAO":"其他",
"POORLAT":35.1530510025863,
"POORLON":108.09957227707
},
{
"FAMILY_ID":"3117528439",
"HOUSEHOLDERNAME":"雷守民",
"RANLIAO":"其他",
"POORLAT":34.2718652805455,
"POORLON":108.303222729551
},
{
"FAMILY_ID":"3117525397",
"HOUSEHOLDERNAME":"晁眼会",
"RANLIAO":"其他",
"POORLAT":34.301247,
"POORLON":108.32027
},
{
"FAMILY_ID":"100000139806228",
"HOUSEHOLDERNAME":"周金虎",
"RANLIAO":"其他",
"POORLAT":34.30225,
"POORLON":108.354034
},
{
"FAMILY_ID":"100000142158306",
"HOUSEHOLDERNAME":"安芳芳",
"RANLIAO":"其他",
"POORLAT":35.13156,
"POORLON":107.9971
},
{
"FAMILY_ID":"100000140209906",
"HOUSEHOLDERNAME":"程科科",
"RANLIAO":"其他",
"POORLAT":35.1344765321154,
"POORLON":107.997492826787
},
{
"FAMILY_ID":"5700000120535952",
"HOUSEHOLDERNAME":"康党辉",
"RANLIAO":"其他",
"POORLAT":34.2742376268464,
"POORLON":108.384403600972
},
{
"FAMILY_ID":"100000136545176",
"HOUSEHOLDERNAME":"康文超",
"RANLIAO":"其他",
"POORLAT":34.2742825479824,
"POORLON":108.376092881841
},
{
"FAMILY_ID":"3117511500",
"HOUSEHOLDERNAME":"雷建科",
"RANLIAO":"其他",
"POORLAT":34.27545,
"POORLON":108.30925
},
{
"FAMILY_ID":"5700000104494404",
"HOUSEHOLDERNAME":"刘岩旭",
"RANLIAO":"其他",
"POORLAT":34.27186,
"POORLON":108.3909
},
{
"FAMILY_ID":"5700000123917780",
"HOUSEHOLDERNAME":"郝扩院",
"RANLIAO":"其他",
"POORLAT":34.30175,
"POORLON":108.32981
},
{
"FAMILY_ID":"5700000007245016",
"HOUSEHOLDERNAME":"杨树儿",
"RANLIAO":"其他",
"POORLAT":34.311314,
"POORLON":108.107796
},
{
"FAMILY_ID":"5700000108035718",
"HOUSEHOLDERNAME":"南波",
"RANLIAO":"其他",
"POORLAT":34.61357257086,
"POORLON":108.185693881089
},
{
"FAMILY_ID":"100000135590038",
"HOUSEHOLDERNAME":"袁社玲",
"RANLIAO":"其他",
"POORLAT":34.5630006790161,
"POORLON":108.740248203278
},
{
"FAMILY_ID":"3117407033",
"HOUSEHOLDERNAME":"胡凤兰",
"RANLIAO":"其他",
"POORLAT":null,
"POORLON":null
},
{
"FAMILY_ID":"100000115835477",
"HOUSEHOLDERNAME":"梁海锋",
"RANLIAO":"其他",
"POORLAT":34.375858759535,
"POORLON":108.1846758381
},
{
"FAMILY_ID":"100000114685659",
"HOUSEHOLDERNAME":"马卫国",
"RANLIAO":"其他",
"POORLAT":34.3764588832855,
"POORLON":108.186524510384
},
{
"FAMILY_ID":"5700000104112156",
"HOUSEHOLDERNAME":"杜俊中",
"RANLIAO":"其他",
"POORLAT":null,
"POORLON":null
},
{
"FAMILY_ID":"100000139522799",
"HOUSEHOLDERNAME":"李文兴",
"RANLIAO":"其他",
"POORLAT":35.042691909239,
"POORLON":108.071402420757
},
{
"FAMILY_ID":"100000162377008",
"HOUSEHOLDERNAME":"席金虎",
"RANLIAO":"其他",
"POORLAT":null,
"POORLON":null
},
{
"FAMILY_ID":"3117367620",
"HOUSEHOLDERNAME":"杨小兰",
"RANLIAO":"其他",
"POORLAT":34.2526026844978,
"POORLON":108.328451857716
},
{
"FAMILY_ID":"100000117422785",
"HOUSEHOLDERNAME":"年兴旺",
"RANLIAO":"其他",
"POORLAT":34.2518341297877,
"POORLON":108.328122341242
},
{
"FAMILY_ID":"100000271252877",
"HOUSEHOLDERNAME":"宋刚练",
"RANLIAO":"其他",
"POORLAT":34.530228,
"POORLON":108.3068
},
{
"FAMILY_ID":"100000130770187",
"HOUSEHOLDERNAME":"韩蒙",
"RANLIAO":"其他",
"POORLAT":34.4327357991177,
"POORLON":108.223156628835
},
{
"FAMILY_ID":"3117371009",
"HOUSEHOLDERNAME":"弥京柯",
"RANLIAO":"其他",
"POORLAT":35.1320803759591,
"POORLON":107.996504843252
},
{
"FAMILY_ID":"3117364817",
"HOUSEHOLDERNAME":"杜云鹏",
"RANLIAO":"其他",
"POORLAT":35.1337163925171,
"POORLON":107.997314882278
},
{
"FAMILY_ID":"100000264794576",
"HOUSEHOLDERNAME":"李新太",
"RANLIAO":"其他",
"POORLAT":null,
"POORLON":null
},
{
"FAMILY_ID":"5700000106684908",
"HOUSEHOLDERNAME":"张粉霞",
"RANLIAO":"其他",
"POORLAT":34.24666,
"POORLON":108.2303
},
{
"FAMILY_ID":"100000152766385",
"HOUSEHOLDERNAME":"袁德民",
"RANLIAO":"其他",
"POORLAT":35.0364335373126,
"POORLON":108.181346231024
},
{
"FAMILY_ID":"5700000107400460",
"HOUSEHOLDERNAME":"丁海报",
"RANLIAO":"其他",
"POORLAT":34.354446,
"POORLON":108.12495
},
{
"FAMILY_ID":"100000136477801",
"HOUSEHOLDERNAME":"苏军锋",
"RANLIAO":"其他",
"POORLAT":34.5386,
"POORLON":108.15668
},
{
"FAMILY_ID":"100000110791196",
"HOUSEHOLDERNAME":"杨献武",
"RANLIAO":"其他",
"POORLAT":34.34145,
"POORLON":108.36165
},
{
"FAMILY_ID":"5700000119836930",
"HOUSEHOLDERNAME":"刘海平",
"RANLIAO":"其他",
"POORLAT":35.0992594306345,
"POORLON":108.074886720132
},
{
"FAMILY_ID":"100000240789911",
"HOUSEHOLDERNAME":"应孝",
"RANLIAO":"其他",
"POORLAT":34.4426474197924,
"POORLON":108.380944403242
},
{
"FAMILY_ID":"100000127314675",
"HOUSEHOLDERNAME":"张四海",
"RANLIAO":"其他",
"POORLAT":34.258633,
"POORLON":108.44831
},
{
"FAMILY_ID":"5700000111514293",
"HOUSEHOLDERNAME":"马驰",
"RANLIAO":"其他",
"POORLAT":null,
"POORLON":null
},
{
"FAMILY_ID":"3117364723",
"HOUSEHOLDERNAME":"房元涛",
"RANLIAO":"其他",
"POORLAT":35.1506840467453,
"POORLON":107.977262687683
},
{
"FAMILY_ID":"3117355807",
"HOUSEHOLDERNAME":"刘元卜",
"RANLIAO":"其他",
"POORLAT":35.1508878946304,
"POORLON":107.977697205544
},
{
"FAMILY_ID":"100000146051621",
"HOUSEHOLDERNAME":"赵建民",
"RANLIAO":"其他",
"POORLAT":35.1608024700103,
"POORLON":107.991580319405
},
{
"FAMILY_ID":"100000238859352",
"HOUSEHOLDERNAME":"赵锦涛",
"RANLIAO":"其他",
"POORLAT":34.706352,
"POORLON":108.43041
},
{
"FAMILY_ID":"3117514523",
"HOUSEHOLDERNAME":"全拴虎",
"RANLIAO":"其他",
"POORLAT":35.1344291080247,
"POORLON":107.996950927314
},
{
"FAMILY_ID":"5700000009980078",
"HOUSEHOLDERNAME":"王锁民",
"RANLIAO":"其他",
"POORLAT":null,
"POORLON":null
},
{
"FAMILY_ID":"100000128218289",
"HOUSEHOLDERNAME":"巨炳玺",
"RANLIAO":"其他",
"POORLAT":34.396034,
"POORLON":108.30489
},
{
"FAMILY_ID":"100000291333981",
"HOUSEHOLDERNAME":"蔡睿",
"RANLIAO":"其他",
"POORLAT":34.5460961626562,
"POORLON":108.74312973655
},
{
"FAMILY_ID":"5700000125121725",
"HOUSEHOLDERNAME":"王文礼",
"RANLIAO":"其他",
"POORLAT":34.56765,
"POORLON":108.77285
},
{
"FAMILY_ID":"100000155221962",
"HOUSEHOLDERNAME":"张新望",
"RANLIAO":"其他",
"POORLAT":34.46263,
"POORLON":108.28825
},
{
"FAMILY_ID":"100000143965052",
"HOUSEHOLDERNAME":"刘小彬",
"RANLIAO":"其他",
"POORLAT":35.1684004027231,
"POORLON":108.000224077171
},
{
"FAMILY_ID":"100000127048801",
"HOUSEHOLDERNAME":"吴群化",
"RANLIAO":"其他",
"POORLAT":null,
"POORLON":null
},
{
"FAMILY_ID":"100000140205139",
"HOUSEHOLDERNAME":"司艳萍",
"RANLIAO":"其他",
"POORLAT":34.419152116994,
"POORLON":108.263348998466
},
{
"FAMILY_ID":"3117376543",
"HOUSEHOLDERNAME":"孙麦麦",
"RANLIAO":"其他",
"POORLAT":35.2275295796055,
"POORLON":107.995127340873
},
{
"FAMILY_ID":"100000108835981",
"HOUSEHOLDERNAME":"何选选",
"RANLIAO":"其他",
"POORLAT":34.5783424377441,
"POORLON":108.202262878418
},
{
"FAMILY_ID":"3117522383",
"HOUSEHOLDERNAME":"池根牛",
"RANLIAO":"其他",
"POORLAT":35.1336773863244,
"POORLON":107.997420868057
},
{
"FAMILY_ID":"5700000122967275",
"HOUSEHOLDERNAME":"李涓会",
"RANLIAO":"其他",
"POORLAT":34.2648592338172,
"POORLON":108.575059728875
},
{
"FAMILY_ID":"5700000122966516",
"HOUSEHOLDERNAME":"付智奎",
"RANLIAO":"其他",
"POORLAT":34.5206717407264,
"POORLON":108.76120192482
},
{
"FAMILY_ID":"100000131213496",
"HOUSEHOLDERNAME":"胡养团",
"RANLIAO":"其他",
"POORLAT":34.41371,
"POORLON":108.12904
},
{
"FAMILY_ID":"100000138152648",
"HOUSEHOLDERNAME":"金峰社",
"RANLIAO":"其他",
"POORLAT":34.240726,
"POORLON":108.49333
},
{
"FAMILY_ID":"100000116605054",
"HOUSEHOLDERNAME":"徐志林",
"RANLIAO":"其他",
"POORLAT":34.6568885688819,
"POORLON":108.608783493265
},
{
"FAMILY_ID":"5700000123129586",
"HOUSEHOLDERNAME":"李富斌",
"RANLIAO":"其他",
"POORLAT":34.2653603507028,
"POORLON":108.577252784453
},
{
"FAMILY_ID":"3117359965",
"HOUSEHOLDERNAME":"冯广齐",
"RANLIAO":"其他",
"POORLAT":35.1336688077862,
"POORLON":107.997415974655
},
{
"FAMILY_ID":"5700000108144575",
"HOUSEHOLDERNAME":"赵扩产",
"RANLIAO":"其他",
"POORLAT":34.2562444785173,
"POORLON":108.488131189762
},
{
"FAMILY_ID":"5700000121091486",
"HOUSEHOLDERNAME":"高芳霞",
"RANLIAO":"其他",
"POORLAT":35.2175418138504,
"POORLON":108.047977566719
},
{
"FAMILY_ID":"5700000106537377",
"HOUSEHOLDERNAME":"孔新民",
"RANLIAO":"其他",
"POORLAT":34.4298594556457,
"POORLON":108.173023321899
},
{
"FAMILY_ID":"100000122938759",
"HOUSEHOLDERNAME":"姜海涛",
"RANLIAO":"其他",
"POORLAT":34.56183,
"POORLON":108.825584
},
{
"FAMILY_ID":"100000108581700",
"HOUSEHOLDERNAME":"何有民",
"RANLIAO":"其他",
"POORLAT":34.5798683166504,
"POORLON":108.204216003418
},
{
"FAMILY_ID":"100000132726389",
"HOUSEHOLDERNAME":"马青梅",
"RANLIAO":"其他",
"POORLAT":34.269188,
"POORLON":108.43236
},
{
"FAMILY_ID":"5700000106229667",
"HOUSEHOLDERNAME":"谢秀英",
"RANLIAO":"其他",
"POORLAT":34.5601387023926,
"POORLON":108.738090515137
},
{
"FAMILY_ID":"5700000105999608",
"HOUSEHOLDERNAME":"徐胜利",
"RANLIAO":"其他",
"POORLAT":34.5633811950684,
"POORLON":108.734275817871
},
{
"FAMILY_ID":"100000106414444",
"HOUSEHOLDERNAME":"王景辉",
"RANLIAO":"其他",
"POORLAT":34.484005,
"POORLON":108.14473
},
{
"FAMILY_ID":"100000134566618",
"HOUSEHOLDERNAME":"孙文生",
"RANLIAO":"其他",
"POORLAT":34.6206688165665,
"POORLON":108.237217020988
},
{
"FAMILY_ID":"3117441318",
"HOUSEHOLDERNAME":"李跃进",
"RANLIAO":"其他",
"POORLAT":34.4607824602403,
"POORLON":108.291162676888
},
{
"FAMILY_ID":"5700000105133630",
"HOUSEHOLDERNAME":"康元旦",
"RANLIAO":"其他",
"POORLAT":34.25545,
"POORLON":108.35623
},
{
"FAMILY_ID":"100000241073584",
"HOUSEHOLDERNAME":"黄启军",
"RANLIAO":"其他",
"POORLAT":34.4431565924545,
"POORLON":108.381041787304
},
{
"FAMILY_ID":"100000127432872",
"HOUSEHOLDERNAME":"张逢会",
"RANLIAO":"其他",
"POORLAT":34.2599580312473,
"POORLON":108.455251564907
},
{
"FAMILY_ID":"100000127468817",
"HOUSEHOLDERNAME":"张俊跃",
"RANLIAO":"其他",
"POORLAT":34.258633,
"POORLON":108.44831
},
{
"FAMILY_ID":"100000108454877",
"HOUSEHOLDERNAME":"孙宏斌",
"RANLIAO":"其他",
"POORLAT":34.5784606933594,
"POORLON":108.197090148926
},
{
"FAMILY_ID":"100000240505844",
"HOUSEHOLDERNAME":"商军入",
"RANLIAO":"其他",
"POORLAT":null,
"POORLON":null
},
{
"FAMILY_ID":"100000392685658",
"HOUSEHOLDERNAME":"李明善",
"RANLIAO":"其他",
"POORLAT":null,
"POORLON":null
},
{
"FAMILY_ID":"100000107812917",
"HOUSEHOLDERNAME":"刘姣姣",
"RANLIAO":"其他",
"POORLAT":34.24044,
"POORLON":108.45133
},
{
"FAMILY_ID":"100000137732996",
"HOUSEHOLDERNAME":"张彩霞",
"RANLIAO":"其他",
"POORLAT":34.23725,
"POORLON":108.48125
},
{
"FAMILY_ID":"100000269208714",
"HOUSEHOLDERNAME":"韩建兴",
"RANLIAO":"其他",
"POORLAT":null,
"POORLON":null
},
{
"FAMILY_ID":"100000136914184",
"HOUSEHOLDERNAME":"包陆军",
"RANLIAO":"其他",
"POORLAT":34.30125,
"POORLON":108.51825
},
{
"FAMILY_ID":"100000288225172",
"HOUSEHOLDERNAME":"王子龙",
"RANLIAO":"其他",
"POORLAT":null,
"POORLON":null
},
{
"FAMILY_ID":"100000132777258",
"HOUSEHOLDERNAME":"张会芹",
"RANLIAO":"其他",
"POORLAT":null,
"POORLON":null
},
{
"FAMILY_ID":"3117389289",
"HOUSEHOLDERNAME":"梁宏魁",
"RANLIAO":"其他",
"POORLAT":null,
"POORLON":null
},
{
"FAMILY_ID":"100000261290708",
"HOUSEHOLDERNAME":"豆亚",
"RANLIAO":"其他",
"POORLAT":null,
"POORLON":null
},
{
"FAMILY_ID":"100000144430944",
"HOUSEHOLDERNAME":"赵生海",
"RANLIAO":"其他",
"POORLAT":34.278034,
"POORLON":108.4838
},
{
"FAMILY_ID":"5700000007848974",
"HOUSEHOLDERNAME":"李同川",
"RANLIAO":"其他",
"POORLAT":34.536892,
"POORLON":108.47029
},
{
"FAMILY_ID":"100000339228221",
"HOUSEHOLDERNAME":"李迎",
"RANLIAO":"其他",
"POORLAT":null,
"POORLON":null
},
{
"FAMILY_ID":"100000122680879",
"HOUSEHOLDERNAME":"康德",
"RANLIAO":"其他",
"POORLAT":null,
"POORLON":null
},
{
"FAMILY_ID":"100000128166456",
"HOUSEHOLDERNAME":"李华",
"RANLIAO":"其他",
"POORLAT":34.332764,
"POORLON":108.17581
},
{
"FAMILY_ID":"5700000014933244",
"HOUSEHOLDERNAME":"孙民生",
"RANLIAO":"其他",
"POORLAT":34.6435829281807,
"POORLON":108.217641756684
},
{
"FAMILY_ID":"100000109509635",
"HOUSEHOLDERNAME":"文秉辉",
"RANLIAO":"其他",
"POORLAT":34.5208378935218,
"POORLON":108.474676772332
},
{
"FAMILY_ID":"5700000105153428",
"HOUSEHOLDERNAME":"杨文静",
"RANLIAO":"其他",
"POORLAT":null,
"POORLON":null
},
{
"FAMILY_ID":"5700000105593576",
"HOUSEHOLDERNAME":"司保旗",
"RANLIAO":"其他",
"POORLAT":34.5534177899361,
"POORLON":108.14637009874
},
{
"FAMILY_ID":"5700000013522478",
"HOUSEHOLDERNAME":"岱联娃",
"RANLIAO":"其他",
"POORLAT":34.380505,
"POORLON":108.52642
},
{
"FAMILY_ID":"5700000103916207",
"HOUSEHOLDERNAME":"陈建平",
"RANLIAO":"其他",
"POORLAT":34.369522,
"POORLON":108.426254
},
{
"FAMILY_ID":"100000108476731",
"HOUSEHOLDERNAME":"杨建虎",
"RANLIAO":"其他",
"POORLAT":34.5414844077672,
"POORLON":108.518407941341
},
{
"FAMILY_ID":"100000238662992",
"HOUSEHOLDERNAME":"陈佩伟",
"RANLIAO":"其他",
"POORLAT":34.7072558879853,
"POORLON":108.331153345108
},
{
"FAMILY_ID":"100000238206466",
"HOUSEHOLDERNAME":"安可云",
"RANLIAO":"其他",
"POORLAT":34.69307,
"POORLON":108.41377
},
{
"FAMILY_ID":"100000255175292",
"HOUSEHOLDERNAME":"王彩云",
"RANLIAO":"其他",
"POORLAT":34.2603086829093,
"POORLON":108.572701296559
},
{
"FAMILY_ID":"100000152160520",
"HOUSEHOLDERNAME":"张乾儒",
"RANLIAO":"其他",
"POORLAT":34.461273,
"POORLON":108.289116
},
{
"FAMILY_ID":"5700000105331417",
"HOUSEHOLDERNAME":"张相爱",
"RANLIAO":"其他",
"POORLAT":34.38537,
"POORLON":108.266914
},
{
"FAMILY_ID":"100000142675152",
"HOUSEHOLDERNAME":"袁争锋",
"RANLIAO":"其他",
"POORLAT":34.489265,
"POORLON":108.30751
},
{
"FAMILY_ID":"100000119927899",
"HOUSEHOLDERNAME":"刘秋林",
"RANLIAO":"其他",
"POORLAT":34.6778516932891,
"POORLON":108.282682187729
},
{
"FAMILY_ID":"5700000013343637",
"HOUSEHOLDERNAME":"南新怀",
"RANLIAO":"其他",
"POORLAT":34.366814,
"POORLON":108.40821
},
{
"FAMILY_ID":"100000136602088",
"HOUSEHOLDERNAME":"赵文华",
"RANLIAO":"其他",
"POORLAT":34.27011,
"POORLON":108.47121
},
{
"FAMILY_ID":"3117444930",
"HOUSEHOLDERNAME":"赵振岐",
"RANLIAO":"其他",
"POORLAT":34.4620220932541,
"POORLON":108.296557084656
},
{
"FAMILY_ID":"100000137121772",
"HOUSEHOLDERNAME":"刘俊杰",
"RANLIAO":"其他",
"POORLAT":34.27011,
"POORLON":108.47121
},
{
"FAMILY_ID":"5700000013081822",
"HOUSEHOLDERNAME":"刘高快",
"RANLIAO":"其他",
"POORLAT":34.4901399612427,
"POORLON":108.138754367828
},
{
"FAMILY_ID":"3117462957",
"HOUSEHOLDERNAME":"王社社",
"RANLIAO":"其他",
"POORLAT":34.427305816722,
"POORLON":108.03206220426
},
{
"FAMILY_ID":"5700000120693326",
"HOUSEHOLDERNAME":"董建峰",
"RANLIAO":"其他",
"POORLAT":34.272224,
"POORLON":108.60346
},
{
"FAMILY_ID":"3117372373",
"HOUSEHOLDERNAME":"房树涛",
"RANLIAO":"其他",
"POORLAT":null,
"POORLON":null
},
{
"FAMILY_ID":"5700000125189083",
"HOUSEHOLDERNAME":"段毛牛",
"RANLIAO":"其他",
"POORLAT":null,
"POORLON":null
},
{
"FAMILY_ID":"100000128713326",
"HOUSEHOLDERNAME":"王金科",
"RANLIAO":"其他",
"POORLAT":34.3919772109748,
"POORLON":108.405869196337
},
{
"FAMILY_ID":"100000139869195",
"HOUSEHOLDERNAME":"姚连政",
"RANLIAO":"其他",
"POORLAT":35.1339577913284,
"POORLON":107.996221361735
},
{
"FAMILY_ID":"5700000105509142",
"HOUSEHOLDERNAME":"聂拉卫",
"RANLIAO":"其他",
"POORLAT":34.43625,
"POORLON":108.11608
},
{
"FAMILY_ID":"100000273557772",
"HOUSEHOLDERNAME":"张石头",
"RANLIAO":"其他",
"POORLAT":34.6240043640137,
"POORLON":109.005043029785
},
{
"FAMILY_ID":"100000276737819",
"HOUSEHOLDERNAME":"解智会",
"RANLIAO":"其他",
"POORLAT":34.2773,
"POORLON":108.54526
},
{
"FAMILY_ID":"3117378701",
"HOUSEHOLDERNAME":"李显利",
"RANLIAO":"其他",
"POORLAT":34.2597239494324,
"POORLON":108.340793204308
},
{
"FAMILY_ID":"100000123023260",
"HOUSEHOLDERNAME":"党有娃",
"RANLIAO":"其他",
"POORLAT":null,
"POORLON":null
},
{
"FAMILY_ID":"100000238060371",
"HOUSEHOLDERNAME":"王晗",
"RANLIAO":"其他",
"POORLAT":34.71082,
"POORLON":108.33284
},
{
"FAMILY_ID":"100000123282747",
"HOUSEHOLDERNAME":"杨志英",
"RANLIAO":"其他",
"POORLAT":null,
"POORLON":null
},
{
"FAMILY_ID":"5700000010110554",
"HOUSEHOLDERNAME":"高怀亮",
"RANLIAO":"其他",
"POORLAT":34.5972666144371,
"POORLON":109.122385144234
},
{
"FAMILY_ID":"100000132157402",
"HOUSEHOLDERNAME":"任水云",
"RANLIAO":"其他",
"POORLAT":null,
"POORLON":null
},
{
"FAMILY_ID":"5700000240013274",
"HOUSEHOLDERNAME":"郭啸辉",
"RANLIAO":"其他",
"POORLAT":34.401309967041,
"POORLON":108.156791687012
},
{
"FAMILY_ID":"100000284131420",
"HOUSEHOLDERNAME":"刘权民",
"RANLIAO":"其他",
"POORLAT":null,
"POORLON":null
},
{
"FAMILY_ID":"100000122000623",
"HOUSEHOLDERNAME":"史桂芳",
"RANLIAO":"其他",
"POORLAT":34.27011,
"POORLON":108.47121
},
{
"FAMILY_ID":"100000133303688",
"HOUSEHOLDERNAME":"杨超产",
"RANLIAO":"其他",
"POORLAT":34.27805,
"POORLON":108.450615
},
{
"FAMILY_ID":"100000150959937",
"HOUSEHOLDERNAME":"何寿菊",
"RANLIAO":"其他",
"POORLAT":34.3124112555037,
"POORLON":108.55910684469
},
{
"FAMILY_ID":"100000121116649",
"HOUSEHOLDERNAME":"薛四海",
"RANLIAO":"其他",
"POORLAT":34.6836445010796,
"POORLON":108.277871992702
},
{
"FAMILY_ID":"100000108073753",
"HOUSEHOLDERNAME":"王宏彬",
"RANLIAO":"其他",
"POORLAT":34.4760110877496,
"POORLON":108.119854906125
},
{
"FAMILY_ID":"100000158661946",
"HOUSEHOLDERNAME":"徐中献",
"RANLIAO":"其他",
"POORLAT":null,
"POORLON":null
},
{
"FAMILY_ID":"3117522354",
"HOUSEHOLDERNAME":"杨英鸽",
"RANLIAO":"其他",
"POORLAT":34.2620467424393,
"POORLON":108.343759727478
},
{
"FAMILY_ID":"100000147500226",
"HOUSEHOLDERNAME":"程增社",
"RANLIAO":"其他",
"POORLAT":34.3841319968605,
"POORLON":108.437823051477
},
{
"FAMILY_ID":"100000133227668",
"HOUSEHOLDERNAME":"张爱侠",
"RANLIAO":"其他",
"POORLAT":34.5952437138941,
"POORLON":108.773224409121
},
{
"FAMILY_ID":"100000112605232",
"HOUSEHOLDERNAME":"李西考",
"RANLIAO":"其他",
"POORLAT":null,
"POORLON":null
},
{
"FAMILY_ID":"5700000104454738",
"HOUSEHOLDERNAME":"党立功",
"RANLIAO":"其他",
"POORLAT":34.4485958520304,
"POORLON":108.340108611421
},
{
"FAMILY_ID":"100000131877114",
"HOUSEHOLDERNAME":"刘成",
"RANLIAO":"其他",
"POORLAT":null,
"POORLON":null
},
{
"FAMILY_ID":"100000146404607",
"HOUSEHOLDERNAME":"张产产",
"RANLIAO":"其他",
"POORLAT":34.30685,
"POORLON":108.51245
},
{
"FAMILY_ID":"100000237335874",
"HOUSEHOLDERNAME":"王玉绒",
"RANLIAO":"其他",
"POORLAT":34.3305932760239,
"POORLON":108.704425644875
},
{
"FAMILY_ID":"100000138643227",
"HOUSEHOLDERNAME":"李林林",
"RANLIAO":"其他",
"POORLAT":null,
"POORLON":null
},
{
"FAMILY_ID":"5700000104412713",
"HOUSEHOLDERNAME":"田建国",
"RANLIAO":"其他",
"POORLAT":null,
"POORLON":null
},
{
"FAMILY_ID":"3117385646",
"HOUSEHOLDERNAME":"任会兰",
"RANLIAO":"其他",
"POORLAT":null,
"POORLON":null
},
{
"FAMILY_ID":"5700000004759952",
"HOUSEHOLDERNAME":"孙永胜",
"RANLIAO":"其他",
"POORLAT":34.7869169089943,
"POORLON":108.357780975103
},
{
"FAMILY_ID":"100000254330664",
"HOUSEHOLDERNAME":"张二牛",
"RANLIAO":"其他",
"POORLAT":34.6893709182739,
"POORLON":108.385307145119
},
{
"FAMILY_ID":"5700000028338823",
"HOUSEHOLDERNAME":"张英",
"RANLIAO":"其他",
"POORLAT":35.1145929997213,
"POORLON":107.981382011645
},
{
"FAMILY_ID":"3117369230",
"HOUSEHOLDERNAME":"张建利",
"RANLIAO":"其他",
"POORLAT":35.1106948034113,
"POORLON":107.986621416142
},
{
"FAMILY_ID":"100000278810879",
"HOUSEHOLDERNAME":"张彦青",
"RANLIAO":"其他",
"POORLAT":34.267796,
"POORLON":108.51775
},
{
"FAMILY_ID":"5700000104270675",
"HOUSEHOLDERNAME":"黄光建",
"RANLIAO":"其他",
"POORLAT":34.2512362115626,
"POORLON":108.495397010586
},
{
"FAMILY_ID":"100000146731433",
"HOUSEHOLDERNAME":"林俊峰",
"RANLIAO":"其他",
"POORLAT":null,
"POORLON":null
},
{
"FAMILY_ID":"100000265898428",
"HOUSEHOLDERNAME":"张超兵",
"RANLIAO":"其他",
"POORLAT":34.6689356106153,
"POORLON":108.388509101558
},
{
"FAMILY_ID":"100000129641013",
"HOUSEHOLDERNAME":"宁丙论",
"RANLIAO":"其他",
"POORLAT":34.6291942596436,
"POORLON":108.375161170959
},
{
"FAMILY_ID":"5700000113761533",
"HOUSEHOLDERNAME":"陈金楼",
"RANLIAO":"其他",
"POORLAT":34.8039803455696,
"POORLON":108.367607270636
},
{
"FAMILY_ID":"100000466496516",
"HOUSEHOLDERNAME":"席兴忠",
"RANLIAO":"其他",
"POORLAT":35.1313293839371,
"POORLON":107.998343971673
},
{
"FAMILY_ID":"5700000123265925",
"HOUSEHOLDERNAME":"寇山",
"RANLIAO":"其他",
"POORLAT":34.65009,
"POORLON":108.835304
},
{
"FAMILY_ID":"100000114775289",
"HOUSEHOLDERNAME":"权芝兰",
"RANLIAO":"其他",
"POORLAT":34.5727752923966,
"POORLON":108.832805053145
},
{
"FAMILY_ID":"100000123105391",
"HOUSEHOLDERNAME":"余涛",
"RANLIAO":"其他",
"POORLAT":34.6871023830552,
"POORLON":108.837941090968
},
{
"FAMILY_ID":"5700000124753006",
"HOUSEHOLDERNAME":"路振英",
"RANLIAO":"其他",
"POORLAT":34.6889989396556,
"POORLON":108.869682215371
},
{
"FAMILY_ID":"100000216528725",
"HOUSEHOLDERNAME":"李新龙",
"RANLIAO":"其他",
"POORLAT":34.6978405529436,
"POORLON":108.815200501298
},
{
"FAMILY_ID":"100000114483322",
"HOUSEHOLDERNAME":"王平省",
"RANLIAO":"其他",
"POORLAT":34.2492260692099,
"POORLON":108.24576422999
},
{
"FAMILY_ID":"5700000013095644",
"HOUSEHOLDERNAME":"郑国新",
"RANLIAO":"其他",
"POORLAT":null,
"POORLON":null
},
{
"FAMILY_ID":"100000112212709",
"HOUSEHOLDERNAME":"翟保国",
"RANLIAO":"其他",
"POORLAT":34.2707260650138,
"POORLON":108.351330412762
},
{
"FAMILY_ID":"100000149557592",
"HOUSEHOLDERNAME":"张百海",
"RANLIAO":"其他",
"POORLAT":34.5915679931641,
"POORLON":108.157600402832
},
{
"FAMILY_ID":"5700000014424213",
"HOUSEHOLDERNAME":"刘云霞",
"RANLIAO":"其他",
"POORLAT":34.466793,
"POORLON":108.19724
},
{
"FAMILY_ID":"100000238672318",
"HOUSEHOLDERNAME":"翁腊民",
"RANLIAO":"其他",
"POORLAT":34.4879705905914,
"POORLON":108.417470574379
},
{
"FAMILY_ID":"3117523588",
"HOUSEHOLDERNAME":"闫涛涛",
"RANLIAO":"其他",
"POORLAT":35.1303447880003,
"POORLON":107.998898756921
},
{
"FAMILY_ID":"100000118013249",
"HOUSEHOLDERNAME":"姚博",
"RANLIAO":"其他",
"POORLAT":34.55162,
"POORLON":108.73609
},
{
"FAMILY_ID":"100000142153518",
"HOUSEHOLDERNAME":"乔贵成",
"RANLIAO":"其他",
"POORLAT":35.1343439605036,
"POORLON":107.996730819057
},
{
"FAMILY_ID":"100000273345536",
"HOUSEHOLDERNAME":"王博",
"RANLIAO":"其他",
"POORLAT":34.765987,
"POORLON":108.97309
},
{
"FAMILY_ID":"5700000031535858",
"HOUSEHOLDERNAME":"张彬彬",
"RANLIAO":"其他",
"POORLAT":35.2567920436189,
"POORLON":108.134931717075
},
{
"FAMILY_ID":"5700000011355912",
"HOUSEHOLDERNAME":"豆群怀",
"RANLIAO":"其他",
"POORLAT":35.1301973342895,
"POORLON":108.004615352303
},
{
"FAMILY_ID":"5700000107996363",
"HOUSEHOLDERNAME":"李鹏辉",
"RANLIAO":"其他",
"POORLAT":null,
"POORLON":null
},
{
"FAMILY_ID":"100000272550797",
"HOUSEHOLDERNAME":"冯总胜",
"RANLIAO":"其他",
"POORLAT":34.214066,
"POORLON":108.26967
},
{
"FAMILY_ID":"3117383929",
"HOUSEHOLDERNAME":"刘雪霞",
"RANLIAO":"其他",
"POORLAT":35.1330941200256,
"POORLON":107.996681378037
},
{
"FAMILY_ID":"5700000124480850",
"HOUSEHOLDERNAME":"刘明选",
"RANLIAO":"其他",
"POORLAT":35.1277726173401,
"POORLON":108.01063959375
},
{
"FAMILY_ID":"100000266008208",
"HOUSEHOLDERNAME":"南状奎",
"RANLIAO":"其他",
"POORLAT":34.361835,
"POORLON":108.45829
},
{
"FAMILY_ID":"3117522164",
"HOUSEHOLDERNAME":"豆彬",
"RANLIAO":"其他",
"POORLAT":35.1300364017487,
"POORLON":107.99909536615
},
{
"FAMILY_ID":"100000136114339",
"HOUSEHOLDERNAME":"王亚利",
"RANLIAO":"其他",
"POORLAT":34.524326,
"POORLON":108.21631
},
{
"FAMILY_ID":"100000129580396",
"HOUSEHOLDERNAME":"王文峰",
"RANLIAO":"其他",
"POORLAT":34.3941436789002,
"POORLON":108.438642566718
},
{
"FAMILY_ID":"100000153987413",
"HOUSEHOLDERNAME":"赵彬乾",
"RANLIAO":"其他",
"POORLAT":35.1143365097279,
"POORLON":107.978318163816
},
{
"FAMILY_ID":"100000239539732",
"HOUSEHOLDERNAME":"廖宗宗",
"RANLIAO":"其他",
"POORLAT":34.8045342445373,
"POORLON":108.39929754734
},
{
"FAMILY_ID":"100000250432958",
"HOUSEHOLDERNAME":"赵准备",
"RANLIAO":"其他",
"POORLAT":34.6747372237037,
"POORLON":108.402379549078
},
{
"FAMILY_ID":"100000115174628",
"HOUSEHOLDERNAME":"齐柱民",
"RANLIAO":"其他",
"POORLAT":null,
"POORLON":null
},
{
"FAMILY_ID":"5700000011381864",
"HOUSEHOLDERNAME":"刘志强",
"RANLIAO":"其他",
"POORLAT":35.1333784341812,
"POORLON":107.996906683594
},
{
"FAMILY_ID":"100000123194981",
"HOUSEHOLDERNAME":"杨志诚",
"RANLIAO":"其他",
"POORLAT":34.6887412072996,
"POORLON":108.867578204605
},
{
"FAMILY_ID":"3117516201",
"HOUSEHOLDERNAME":"豆进进",
"RANLIAO":"其他",
"POORLAT":35.1333320720662,
"POORLON":107.996487072209
},
{
"FAMILY_ID":"100000123068576",
"HOUSEHOLDERNAME":"耿思耀",
"RANLIAO":"其他",
"POORLAT":null,
"POORLON":null
},
{
"FAMILY_ID":"100000140357543",
"HOUSEHOLDERNAME":"王秀芹",
"RANLIAO":"其他",
"POORLAT":null,
"POORLON":null
},
{
"FAMILY_ID":"100000115273953",
"HOUSEHOLDERNAME":"巩彦虎",
"RANLIAO":"其他",
"POORLAT":34.7859465360641,
"POORLON":108.382190418243
},
{
"FAMILY_ID":"5700000104873639",
"HOUSEHOLDERNAME":"郭青俊",
"RANLIAO":"其他",
"POORLAT":null,
"POORLON":null
},
{
"FAMILY_ID":"100000149905383",
"HOUSEHOLDERNAME":"冯联社",
"RANLIAO":"其他",
"POORLAT":34.2931213378906,
"POORLON":108.552146911621
},
{
"FAMILY_ID":"5700000104435965",
"HOUSEHOLDERNAME":"宋德印",
"RANLIAO":"其他",
"POORLAT":null,
"POORLON":null
},
{
"FAMILY_ID":"5700000108276239",
"HOUSEHOLDERNAME":"郭社娃",
"RANLIAO":"其他",
"POORLAT":34.410866,
"POORLON":108.49733
},
{
"FAMILY_ID":"100000123606162",
"HOUSEHOLDERNAME":"潘景义",
"RANLIAO":"其他",
"POORLAT":34.3305932760239,
"POORLON":108.704425644875
},
{
"FAMILY_ID":"100000136317410",
"HOUSEHOLDERNAME":"陈石头",
"RANLIAO":"其他",
"POORLAT":34.5865143456361,
"POORLON":108.81965116486
},
{
"FAMILY_ID":"100000142269369",
"HOUSEHOLDERNAME":"刘恩进",
"RANLIAO":"其他",
"POORLAT":35.1299516681075,
"POORLON":107.99950571634
},
{
"FAMILY_ID":"100000136305784",
"HOUSEHOLDERNAME":"崔岁忙",
"RANLIAO":"其他",
"POORLAT":34.5858966588974,
"POORLON":108.819109358639
},
{
"FAMILY_ID":"100000136323944",
"HOUSEHOLDERNAME":"孟立海",
"RANLIAO":"其他",
"POORLAT":34.5866017528775,
"POORLON":108.819763950578
},
{
"FAMILY_ID":"100000135552485",
"HOUSEHOLDERNAME":"金袄",
"RANLIAO":"其他",
"POORLAT":34.5856259533817,
"POORLON":108.819353072912
},
{
"FAMILY_ID":"3117479578",
"HOUSEHOLDERNAME":"姚科政",
"RANLIAO":"其他",
"POORLAT":35.133604733599,
"POORLON":107.996386466313
},
{
"FAMILY_ID":"100000260283964",
"HOUSEHOLDERNAME":"张海元",
"RANLIAO":"其他",
"POORLAT":34.7676002264023,
"POORLON":108.308638882637
},
{
"FAMILY_ID":"100000237816051",
"HOUSEHOLDERNAME":"孙建义",
"RANLIAO":"其他",
"POORLAT":null,
"POORLON":null
},
{
"FAMILY_ID":"100000255542321",
"HOUSEHOLDERNAME":"陈慕云",
"RANLIAO":"其他",
"POORLAT":34.7903507232666,
"POORLON":108.337408256531
},
{
"FAMILY_ID":"100000237705035",
"HOUSEHOLDERNAME":"杜米红",
"RANLIAO":"其他",
"POORLAT":34.7796648025513,
"POORLON":108.331861448288
},
{
"FAMILY_ID":"100000260291672",
"HOUSEHOLDERNAME":"郑水利",
"RANLIAO":"其他",
"POORLAT":34.7683458805084,
"POORLON":108.309491825104
},
{
"FAMILY_ID":"100000135572110",
"HOUSEHOLDERNAME":"牛会勤",
"RANLIAO":"其他",
"POORLAT":34.586851952121,
"POORLON":108.819919385761
},
{
"FAMILY_ID":"100000134521251",
"HOUSEHOLDERNAME":"李保全",
"RANLIAO":"其他",
"POORLAT":34.5860876125619,
"POORLON":108.82076479842
},
{
"FAMILY_ID":"5700000011331115",
"HOUSEHOLDERNAME":"闫元平",
"RANLIAO":"其他",
"POORLAT":35.1296608924866,
"POORLON":107.999497697502
},
{
"FAMILY_ID":"100000259553542",
"HOUSEHOLDERNAME":"孙庆龙",
"RANLIAO":"其他",
"POORLAT":34.8156680688373,
"POORLON":108.353217338717
},
{
"FAMILY_ID":"5700000108170032",
"HOUSEHOLDERNAME":"葛户民",
"RANLIAO":"其他",
"POORLAT":34.294357,
"POORLON":108.24179
},
{
"FAMILY_ID":"5700000105700468",
"HOUSEHOLDERNAME":"都立甲",
"RANLIAO":"其他",
"POORLAT":null,
"POORLON":null
},
{
"FAMILY_ID":"100000154414409",
"HOUSEHOLDERNAME":"焦建修",
"RANLIAO":"其他",
"POORLAT":35.1338446164605,
"POORLON":107.996715232882
},
{
"FAMILY_ID":"3117424065",
"HOUSEHOLDERNAME":"宋柱民",
"RANLIAO":"其他",
"POORLAT":34.6756522136307,
"POORLON":108.04537317791
},
{
"FAMILY_ID":"100000135155929",
"HOUSEHOLDERNAME":"邢学信",
"RANLIAO":"其他",
"POORLAT":34.58918859038,
"POORLON":108.81988509414
},
{
"FAMILY_ID":"100000124474815",
"HOUSEHOLDERNAME":"何关演",
"RANLIAO":"其他",
"POORLAT":34.2795238494873,
"POORLON":108.181061148643
},
{
"FAMILY_ID":"100000136324143",
"HOUSEHOLDERNAME":"苟兆义",
"RANLIAO":"其他",
"POORLAT":34.5888425516769,
"POORLON":108.818621255516
},
{
"FAMILY_ID":"100000135662301",
"HOUSEHOLDERNAME":"牛胜利",
"RANLIAO":"其他",
"POORLAT":34.5891869522718,
"POORLON":108.820184054573
},
{
"FAMILY_ID":"100000136317215",
"HOUSEHOLDERNAME":"刘玉喜",
"RANLIAO":"其他",
"POORLAT":34.5886960319353,
"POORLON":108.819831714037
},
{
"FAMILY_ID":"100000136283501",
"HOUSEHOLDERNAME":"林昌娃",
"RANLIAO":"其他",
"POORLAT":34.5886005771098,
"POORLON":108.820008056247
},
{
"FAMILY_ID":"100000134913808",
"HOUSEHOLDERNAME":"张民会",
"RANLIAO":"其他",
"POORLAT":34.5885531381396,
"POORLON":108.816973268809
},
{
"FAMILY_ID":"100000135009700",
"HOUSEHOLDERNAME":"梅爱",
"RANLIAO":"其他",
"POORLAT":34.5862794600606,
"POORLON":108.819823851848
},
{
"FAMILY_ID":"100000142441989",
"HOUSEHOLDERNAME":"程建群",
"RANLIAO":"其他",
"POORLAT":35.1331360884242,
"POORLON":107.996780980506
},
{
"FAMILY_ID":"5700000113240837",
"HOUSEHOLDERNAME":"杨联合",
"RANLIAO":"其他",
"POORLAT":34.7737049341202,
"POORLON":108.318235826492
},
{
"FAMILY_ID":"100000151804436",
"HOUSEHOLDERNAME":"田桂勤",
"RANLIAO":"其他",
"POORLAT":null,
"POORLON":null
},
{
"FAMILY_ID":"5700000033041979",
"HOUSEHOLDERNAME":"豆小丽",
"RANLIAO":"其他",
"POORLAT":35.1484879638168,
"POORLON":107.966167444684
},
{
"FAMILY_ID":"100000152286249",
"HOUSEHOLDERNAME":"贾莲彩",
"RANLIAO":"其他",
"POORLAT":null,
"POORLON":null
},
{
"FAMILY_ID":"5700000111654469",
"HOUSEHOLDERNAME":"张安省",
"RANLIAO":"其他",
"POORLAT":34.2338476789713,
"POORLON":108.240548701097
},
{
"FAMILY_ID":"3117532176",
"HOUSEHOLDERNAME":"段长年",
"RANLIAO":"其他",
"POORLAT":35.1384996894094,
"POORLON":107.99101473274
},
{
"FAMILY_ID":"3117382487",
"HOUSEHOLDERNAME":"赵宝云",
"RANLIAO":"其他",
"POORLAT":35.1345332319058,
"POORLON":107.997144926651
},
{
"FAMILY_ID":"100000132142561",
"HOUSEHOLDERNAME":"王北海",
"RANLIAO":"其他",
"POORLAT":34.5913361252191,
"POORLON":108.418834650684
},
{
"FAMILY_ID":"3117382475",
"HOUSEHOLDERNAME":"陈仪民",
"RANLIAO":"其他",
"POORLAT":35.1708399309154,
"POORLON":107.974854308151
},
{
"FAMILY_ID":"3117466615",
"HOUSEHOLDERNAME":"何小民",
"RANLIAO":"其他",
"POORLAT":34.2801260948181,
"POORLON":108.18253839016
},
{
"FAMILY_ID":"100000123198704",
"HOUSEHOLDERNAME":"惠猛",
"RANLIAO":"其他",
"POORLAT":null,
"POORLON":null
},
{
"FAMILY_ID":"100000124070136",
"HOUSEHOLDERNAME":"张文平",
"RANLIAO":"其他",
"POORLAT":null,
"POORLON":null
},
{
"FAMILY_ID":"100000467011866",
"HOUSEHOLDERNAME":"乔志芳",
"RANLIAO":"其他",
"POORLAT":35.1300584430941,
"POORLON":107.999999656156
},
{
"FAMILY_ID":"100000136033897",
"HOUSEHOLDERNAME":"师军娃",
"RANLIAO":"其他",
"POORLAT":34.5881944940098,
"POORLON":108.819386569909
},
{
"FAMILY_ID":"100000145968036",
"HOUSEHOLDERNAME":"师中奎",
"RANLIAO":"其他",
"POORLAT":35.1472023339434,
"POORLON":107.978072714806
},
{
"FAMILY_ID":"3117449063",
"HOUSEHOLDERNAME":"赵讲生",
"RANLIAO":"其他",
"POORLAT":34.5049819946289,
"POORLON":108.449645996094
},
{
"FAMILY_ID":"100000111120729",
"HOUSEHOLDERNAME":"张会莲",
"RANLIAO":"其他",
"POORLAT":34.5620460271327,
"POORLON":108.769859450678
},
{
"FAMILY_ID":"100000155705263",
"HOUSEHOLDERNAME":"郑宏养",
"RANLIAO":"其他",
"POORLAT":34.7963456815776,
"POORLON":108.308552904301
},
{
"FAMILY_ID":"100000136558539",
"HOUSEHOLDERNAME":"白锋利",
"RANLIAO":"其他",
"POORLAT":34.493271946907,
"POORLON":108.418341398239
},
{
"FAMILY_ID":"5700000104869015",
"HOUSEHOLDERNAME":"芮阿雷",
"RANLIAO":"其他",
"POORLAT":34.5882389471138,
"POORLON":108.453953899225
},
{
"FAMILY_ID":"100000237654415",
"HOUSEHOLDERNAME":"郑备战",
"RANLIAO":"其他",
"POORLAT":34.7688715934754,
"POORLON":108.309540104866
},
{
"FAMILY_ID":"100000143184675",
"HOUSEHOLDERNAME":"孙社会",
"RANLIAO":"其他",
"POORLAT":35.1339282870293,
"POORLON":107.996959741041
},
{
"FAMILY_ID":"100000135177830",
"HOUSEHOLDERNAME":"王永乐",
"RANLIAO":"其他",
"POORLAT":34.5879421460053,
"POORLON":108.819927764135
},
{
"FAMILY_ID":"100000136310956",
"HOUSEHOLDERNAME":"帖兆军",
"RANLIAO":"其他",
"POORLAT":34.5884204369387,
"POORLON":108.819903813368
},
{
"FAMILY_ID":"100000259284744",
"HOUSEHOLDERNAME":"李思平",
"RANLIAO":"其他",
"POORLAT":34.7965169277538,
"POORLON":108.315267630391
},
{
"FAMILY_ID":"100000143364966",
"HOUSEHOLDERNAME":"张新贵",
"RANLIAO":"其他",
"POORLAT":35.1348115686886,
"POORLON":107.997598106787
},
{
"FAMILY_ID":"100000132588979",
"HOUSEHOLDERNAME":"段团生",
"RANLIAO":"其他",
"POORLAT":34.6068346772355,
"POORLON":108.454299154089
},
{
"FAMILY_ID":"100000136266178",
"HOUSEHOLDERNAME":"张伟",
"RANLIAO":"其他",
"POORLAT":null,
"POORLON":null
},
{
"FAMILY_ID":"100000135615308",
"HOUSEHOLDERNAME":"韩兴全",
"RANLIAO":"其他",
"POORLAT":35.2413507580757,
"POORLON":108.109790132195
},
{
"FAMILY_ID":"100000121344653",
"HOUSEHOLDERNAME":"王建卫",
"RANLIAO":"其他",
"POORLAT":34.6639802705175,
"POORLON":108.314364336126
},
{
"FAMILY_ID":"100000257645135",
"HOUSEHOLDERNAME":"王文让",
"RANLIAO":"其他",
"POORLAT":34.5364158490921,
"POORLON":108.646578621504
},
{
"FAMILY_ID":"100000253876347",
"HOUSEHOLDERNAME":"梁学凯",
"RANLIAO":"其他",
"POORLAT":null,
"POORLON":null
},
{
"FAMILY_ID":"100000153111695",
"HOUSEHOLDERNAME":"雷立敏",
"RANLIAO":"其他",
"POORLAT":34.5378842383019,
"POORLON":108.648457309042
},
{
"FAMILY_ID":"100000258711836",
"HOUSEHOLDERNAME":"王小勤",
"RANLIAO":"其他",
"POORLAT":34.7970438785527,
"POORLON":108.311066075397
},
{
"FAMILY_ID":"100000254723437",
"HOUSEHOLDERNAME":"梁有健",
"RANLIAO":"其他",
"POORLAT":null,
"POORLON":null
},
{
"FAMILY_ID":"5700000012541604",
"HOUSEHOLDERNAME":"张进",
"RANLIAO":"其他",
"POORLAT":34.5996,
"POORLON":109.041626
},
{
"FAMILY_ID":"100000237666035",
"HOUSEHOLDERNAME":"灰米霞",
"RANLIAO":"其他",
"POORLAT":34.7676002264023,
"POORLON":108.308746170998
},
{
"FAMILY_ID":"100000239279351",
"HOUSEHOLDERNAME":"张国亲",
"RANLIAO":"其他",
"POORLAT":34.7842674732208,
"POORLON":108.321245265007
},
{
"FAMILY_ID":"5700000120260770",
"HOUSEHOLDERNAME":"谢学义",
"RANLIAO":"其他",
"POORLAT":34.5786618108368,
"POORLON":108.794866727448
},
{
"FAMILY_ID":"100000269275579",
"HOUSEHOLDERNAME":"王涛",
"RANLIAO":"其他",
"POORLAT":34.4901322878667,
"POORLON":108.664572946932
},
{
"FAMILY_ID":"3117454464",
"HOUSEHOLDERNAME":"史宏省",
"RANLIAO":"其他",
"POORLAT":34.2143164656697,
"POORLON":108.256638714948
},
{
"FAMILY_ID":"5700000023149543",
"HOUSEHOLDERNAME":"王培兴",
"RANLIAO":"其他",
"POORLAT":34.5844497680664,
"POORLON":108.730598449707
},
{
"FAMILY_ID":"100000109227751",
"HOUSEHOLDERNAME":"刘卫明",
"RANLIAO":"其他",
"POORLAT":34.522884,
"POORLON":108.48759
},
{
"FAMILY_ID":"5700000107746330",
"HOUSEHOLDERNAME":"张兴军",
"RANLIAO":"其他",
"POORLAT":34.6545372539272,
"POORLON":108.31928119758
},
{
"FAMILY_ID":"100000136320261",
"HOUSEHOLDERNAME":"贺忠礼",
"RANLIAO":"其他",
"POORLAT":35.2384144837919,
"POORLON":108.110151348388
},
{
"FAMILY_ID":"100000270473286",
"HOUSEHOLDERNAME":"余生民",
"RANLIAO":"其他",
"POORLAT":34.755997,
"POORLON":108.97898
},
{
"FAMILY_ID":"100000231890571",
"HOUSEHOLDERNAME":"吴年娃",
"RANLIAO":"其他",
"POORLAT":34.4829781085421,
"POORLON":108.64545433894
},
{
"FAMILY_ID":"100000236561408",
"HOUSEHOLDERNAME":"刘会英",
"RANLIAO":"其他",
"POORLAT":null,
"POORLON":null
},
{
"FAMILY_ID":"100000259102790",
"HOUSEHOLDERNAME":"都脱产",
"RANLIAO":"其他",
"POORLAT":34.7995322396087,
"POORLON":108.316049995957
},
{
"FAMILY_ID":"100000259465438",
"HOUSEHOLDERNAME":"郑益忠",
"RANLIAO":"其他",
"POORLAT":34.7976015803129,
"POORLON":108.311938383088
},
{
"FAMILY_ID":"5700000111790223",
"HOUSEHOLDERNAME":"张高会",
"RANLIAO":"其他",
"POORLAT":34.2357944766268,
"POORLON":108.251810951967
},
{
"FAMILY_ID":"100000130338786",
"HOUSEHOLDERNAME":"马德英",
"RANLIAO":"其他",
"POORLAT":34.5845368329462,
"POORLON":108.497391295433
},
{
"FAMILY_ID":"100000148559232",
"HOUSEHOLDERNAME":"陈少华",
"RANLIAO":"其他",
"POORLAT":34.7870837926865,
"POORLON":108.86350209713
},
{
"FAMILY_ID":"5700000108431982",
"HOUSEHOLDERNAME":"陈志俊",
"RANLIAO":"其他",
"POORLAT":34.6825356153737,
"POORLON":108.321052809267
},
{
"FAMILY_ID":"5700000326303065",
"HOUSEHOLDERNAME":"张胜利",
"RANLIAO":"其他",
"POORLAT":34.6178550750959,
"POORLON":108.633706178004
},
{
"FAMILY_ID":"100000239213605",
"HOUSEHOLDERNAME":"薛景才",
"RANLIAO":"其他",
"POORLAT":34.5135574817657,
"POORLON":108.631401414797
},
{
"FAMILY_ID":"5700000106601757",
"HOUSEHOLDERNAME":"刘民强",
"RANLIAO":"其他",
"POORLAT":null,
"POORLON":null
},
{
"FAMILY_ID":"5700000010388215",
"HOUSEHOLDERNAME":"郭振华",
"RANLIAO":"其他",
"POORLAT":34.6497037291527,
"POORLON":109.024509236962
},
{
"FAMILY_ID":"100000258106467",
"HOUSEHOLDERNAME":"雷二教",
"RANLIAO":"其他",
"POORLAT":34.5361889973407,
"POORLON":108.646718279309
},
{
"FAMILY_ID":"100000166516667",
"HOUSEHOLDERNAME":"张西玲",
"RANLIAO":"其他",
"POORLAT":null,
"POORLON":null
},
{
"FAMILY_ID":"5700000106026852",
"HOUSEHOLDERNAME":"梁秋生",
"RANLIAO":"其他",
"POORLAT":null,
"POORLON":null
},
{
"FAMILY_ID":"5700000009290766",
"HOUSEHOLDERNAME":"李军利",
"RANLIAO":"其他",
"POORLAT":null,
"POORLON":null
},
{
"FAMILY_ID":"5700000109954643",
"HOUSEHOLDERNAME":"张胜军",
"RANLIAO":"其他",
"POORLAT":null,
"POORLON":null
},
{
"FAMILY_ID":"100000187382430",
"HOUSEHOLDERNAME":"白志军",
"RANLIAO":"其他",
"POORLAT":35.2014330762964,
"POORLON":108.219496660748
},
{
"FAMILY_ID":"3117490648",
"HOUSEHOLDERNAME":"巩海锋",
"RANLIAO":"其他",
"POORLAT":35.059624,
"POORLON":108.288895
},
{
"FAMILY_ID":"3117503183",
"HOUSEHOLDERNAME":"郭春群",
"RANLIAO":"其他",
"POORLAT":35.059624,
"POORLON":108.288895
},
{
"FAMILY_ID":"5700000116659050",
"HOUSEHOLDERNAME":"张海朋",
"RANLIAO":"其他",
"POORLAT":35.185932,
"POORLON":108.31317
},
{
"FAMILY_ID":"100000168167272",
"HOUSEHOLDERNAME":"李富生",
"RANLIAO":"其他",
"POORLAT":35.0286709155676,
"POORLON":108.222202467089
},
{
"FAMILY_ID":"100000339588873",
"HOUSEHOLDERNAME":"代书文",
"RANLIAO":"其他",
"POORLAT":35.1353767667396,
"POORLON":108.25804401506
},
{
"FAMILY_ID":"100000160269559",
"HOUSEHOLDERNAME":"韩富平",
"RANLIAO":"其他",
"POORLAT":34.9935233806419,
"POORLON":108.317714470465
},
{
"FAMILY_ID":"100000167382034",
"HOUSEHOLDERNAME":"李书安",
"RANLIAO":"其他",
"POORLAT":35.0295803127266,
"POORLON":108.221282540875
},
{
"FAMILY_ID":"5700000119762695",
"HOUSEHOLDERNAME":"曹孝红",
"RANLIAO":"其他",
"POORLAT":35.2167496681213,
"POORLON":108.268460869789
},
{
"FAMILY_ID":"100000155213945",
"HOUSEHOLDERNAME":"文勃勃",
"RANLIAO":"其他",
"POORLAT":35.1797528812635,
"POORLON":108.30746489497
},
{
"FAMILY_ID":"100000169056902",
"HOUSEHOLDERNAME":"赵忠儒",
"RANLIAO":"其他",
"POORLAT":35.118615280927,
"POORLON":108.335536364686
},
{
"FAMILY_ID":"5700000039985025",
"HOUSEHOLDERNAME":"刘维华",
"RANLIAO":"其他",
"POORLAT":35.19223,
"POORLON":108.34247
},
{
"FAMILY_ID":"5700000105994933",
"HOUSEHOLDERNAME":"梁玉全",
"RANLIAO":"其他",
"POORLAT":34.9759674072266,
"POORLON":108.32884979248
},
{
"FAMILY_ID":"5700000115806727",
"HOUSEHOLDERNAME":"安如义",
"RANLIAO":"其他",
"POORLAT":35.1487654949708,
"POORLON":108.219722009053
},
{
"FAMILY_ID":"5700000118441031",
"HOUSEHOLDERNAME":"杜建民",
"RANLIAO":"其他",
"POORLAT":35.185225144558,
"POORLON":108.336306540489
},
{
"FAMILY_ID":"5700000114522420",
"HOUSEHOLDERNAME":"赵战怀",
"RANLIAO":"其他",
"POORLAT":35.16849,
"POORLON":108.235435
},
{
"FAMILY_ID":"100000165312815",
"HOUSEHOLDERNAME":"刘世华",
"RANLIAO":"其他",
"POORLAT":35.0336,
"POORLON":108.35763
},
{
"FAMILY_ID":"5700000124772230",
"HOUSEHOLDERNAME":"杜运儒",
"RANLIAO":"其他",
"POORLAT":35.183770015583,
"POORLON":108.332032208443
},
{
"FAMILY_ID":"3117452041",
"HOUSEHOLDERNAME":"郭勤战",
"RANLIAO":"其他",
"POORLAT":35.0336,
"POORLON":108.35763
},
{
"FAMILY_ID":"5700000125557607",
"HOUSEHOLDERNAME":"马转过",
"RANLIAO":"其他",
"POORLAT":35.0488098285068,
"POORLON":108.247835074153
},
{
"FAMILY_ID":"5700000111604760",
"HOUSEHOLDERNAME":"张会娥",
"RANLIAO":"其他",
"POORLAT":35.1757197856903,
"POORLON":108.249769759178
},
{
"FAMILY_ID":"100000256769147",
"HOUSEHOLDERNAME":"文元",
"RANLIAO":"其他",
"POORLAT":null,
"POORLON":null
},
{
"FAMILY_ID":"5700000116712529",
"HOUSEHOLDERNAME":"杨宏利",
"RANLIAO":"其他",
"POORLAT":null,
"POORLON":null
},
{
"FAMILY_ID":"100000237577004",
"HOUSEHOLDERNAME":"潘爱国",
"RANLIAO":"其他",
"POORLAT":35.06851,
"POORLON":108.22838
},
{
"FAMILY_ID":"100000180154365",
"HOUSEHOLDERNAME":"于重林",
"RANLIAO":"其他",
"POORLAT":35.0195152960635,
"POORLON":108.233046974157
},
{
"FAMILY_ID":"5700000117308628",
"HOUSEHOLDERNAME":"王有保",
"RANLIAO":"其他",
"POORLAT":null,
"POORLON":null
},
{
"FAMILY_ID":"5700000125427262",
"HOUSEHOLDERNAME":"李俊哲",
"RANLIAO":"其他",
"POORLAT":35.047660730333,
"POORLON":108.257488225613
},
{
"FAMILY_ID":"100000260103063",
"HOUSEHOLDERNAME":"程保娃",
"RANLIAO":"其他",
"POORLAT":35.083084332943,
"POORLON":108.412911350653
},
{
"FAMILY_ID":"100000182669315",
"HOUSEHOLDERNAME":"周忠付",
"RANLIAO":"其他",
"POORLAT":35.02045,
"POORLON":108.22945
},
{
"FAMILY_ID":"5700000103770763",
"HOUSEHOLDERNAME":"关新平",
"RANLIAO":"其他",
"POORLAT":35.2232618331909,
"POORLON":107.766500234604
},
{
"FAMILY_ID":"5700000103440191",
"HOUSEHOLDERNAME":"任忠民",
"RANLIAO":"其他",
"POORLAT":34.7983902804751,
"POORLON":108.057181726491
},
{
"FAMILY_ID":"3117444641",
"HOUSEHOLDERNAME":"王永学",
"RANLIAO":"其他",
"POORLAT":34.8096089839935,
"POORLON":108.046318228531
},
{
"FAMILY_ID":"5700000036570783",
"HOUSEHOLDERNAME":"南新法",
"RANLIAO":"其他",
"POORLAT":34.8059531331062,
"POORLON":108.044189669937
},
{
"FAMILY_ID":"100000283254115",
"HOUSEHOLDERNAME":"贺军民",
"RANLIAO":"其他",
"POORLAT":34.8361969283348,
"POORLON":108.189475650186
},
{
"FAMILY_ID":"3117499657",
"HOUSEHOLDERNAME":"南文峰",
"RANLIAO":"其他",
"POORLAT":34.8064010620117,
"POORLON":108.043894124031
},
{
"FAMILY_ID":"100000131051356",
"HOUSEHOLDERNAME":"王长军",
"RANLIAO":"其他",
"POORLAT":34.7774456754169,
"POORLON":108.032294086497
},
{
"FAMILY_ID":"3117426370",
"HOUSEHOLDERNAME":"王彦杰",
"RANLIAO":"其他",
"POORLAT":34.6922194242477,
"POORLON":108.130636763573
},
{
"FAMILY_ID":"100000159298290",
"HOUSEHOLDERNAME":"吕发红",
"RANLIAO":"其他",
"POORLAT":34.720257,
"POORLON":108.06298
},
{
"FAMILY_ID":"3117403641",
"HOUSEHOLDERNAME":"王丰收",
"RANLIAO":"其他",
"POORLAT":34.6908461332321,
"POORLON":108.133034658432
},
{
"FAMILY_ID":"3117425046",
"HOUSEHOLDERNAME":"任良兴",
"RANLIAO":"其他",
"POORLAT":34.6946977853775,
"POORLON":108.133056116104
},
{
"FAMILY_ID":"100000287302302",
"HOUSEHOLDERNAME":"李珍香",
"RANLIAO":"其他",
"POORLAT":34.6950464725494,
"POORLON":108.134306025505
},
{
"FAMILY_ID":"100000287686373",
"HOUSEHOLDERNAME":"朱公娃",
"RANLIAO":"其他",
"POORLAT":34.66674,
"POORLON":108.12664
},
{
"FAMILY_ID":"5700000121224073",
"HOUSEHOLDERNAME":"高军孝",
"RANLIAO":"其他",
"POORLAT":35.2922569619187,
"POORLON":107.747533556707
},
{
"FAMILY_ID":"100000129580910",
"HOUSEHOLDERNAME":"杨银锁",
"RANLIAO":"其他",
"POORLAT":35.145054,
"POORLON":107.77089
},
{
"FAMILY_ID":"100000291096536",
"HOUSEHOLDERNAME":"严民生",
"RANLIAO":"其他",
"POORLAT":34.3305684065734,
"POORLON":108.704407894066
},
{
"FAMILY_ID":"5700000117487339",
"HOUSEHOLDERNAME":"蒋来义",
"RANLIAO":"其他",
"POORLAT":34.6921713250365,
"POORLON":108.20991432993
},
{
"FAMILY_ID":"100000131410188",
"HOUSEHOLDERNAME":"赵金明",
"RANLIAO":"其他",
"POORLAT":null,
"POORLON":null
},
{
"FAMILY_ID":"100000131635115",
"HOUSEHOLDERNAME":"杨玉贵",
"RANLIAO":"其他",
"POORLAT":35.14977,
"POORLON":107.893875
},
{
"FAMILY_ID":"100000126082025",
"HOUSEHOLDERNAME":"槐宝社",
"RANLIAO":"其他",
"POORLAT":34.8208966182558,
"POORLON":107.978255105019
},
{
"FAMILY_ID":"100000146567758",
"HOUSEHOLDERNAME":"席宽亮",
"RANLIAO":"其他",
"POORLAT":35.3025936365127,
"POORLON":107.745326709747
},
{
"FAMILY_ID":"100000154497186",
"HOUSEHOLDERNAME":"尚慧英",
"RANLIAO":"其他",
"POORLAT":34.7043869495392,
"POORLON":108.20160317421
},
{
"FAMILY_ID":"100000270672464",
"HOUSEHOLDERNAME":"李群草",
"RANLIAO":"其他",
"POORLAT":35.1936224765146,
"POORLON":107.819569779532
},
{
"FAMILY_ID":"100000125126528",
"HOUSEHOLDERNAME":"井凯",
"RANLIAO":"其他",
"POORLAT":34.8251523852348,
"POORLON":108.046356894821
},
{
"FAMILY_ID":"100000482975782",
"HOUSEHOLDERNAME":"崔兴劳",
"RANLIAO":"其他",
"POORLAT":35.1625534296036,
"POORLON":107.850431919098
},
{
"FAMILY_ID":"5700000110038666",
"HOUSEHOLDERNAME":"李小妮",
"RANLIAO":"其他",
"POORLAT":35.03062,
"POORLON":107.8216
},
{
"FAMILY_ID":"5700000106875416",
"HOUSEHOLDERNAME":"尚五杰",
"RANLIAO":"其他",
"POORLAT":35.2380214261901,
"POORLON":107.709777230761
},
{
"FAMILY_ID":"5700000004709085",
"HOUSEHOLDERNAME":"周建孝",
"RANLIAO":"其他",
"POORLAT":35.25166,
"POORLON":107.70496
},
{
"FAMILY_ID":"5700000004662988",
"HOUSEHOLDERNAME":"张拴梅",
"RANLIAO":"其他",
"POORLAT":35.25808,
"POORLON":107.73625
},
{
"FAMILY_ID":"5700000108728092",
"HOUSEHOLDERNAME":"周占地",
"RANLIAO":"其他",
"POORLAT":34.526538848877,
"POORLON":108.147911071777
},
{
"FAMILY_ID":"5700000104083182",
"HOUSEHOLDERNAME":"马会通",
"RANLIAO":"其他",
"POORLAT":34.3570770299927,
"POORLON":108.25232398717
},
{
"FAMILY_ID":"100000130289850",
"HOUSEHOLDERNAME":"张欢",
"RANLIAO":"其他",
"POORLAT":34.356705,
"POORLON":108.31051
},
{
"FAMILY_ID":"100000201261572",
"HOUSEHOLDERNAME":"佘书记",
"RANLIAO":"其他",
"POORLAT":34.5303542613983,
"POORLON":108.307329416275
},
{
"FAMILY_ID":"5700000104527816",
"HOUSEHOLDERNAME":"贾新国",
"RANLIAO":"其他",
"POORLAT":34.34105,
"POORLON":108.21801
},
{
"FAMILY_ID":"100000126209791",
"HOUSEHOLDERNAME":"周淑玲",
"RANLIAO":"其他",
"POORLAT":34.42165,
"POORLON":108.3415
},
{
"FAMILY_ID":"3117454614",
"HOUSEHOLDERNAME":"陈联丰",
"RANLIAO":"其他",
"POORLAT":34.2325551741369,
"POORLON":108.186860215649
},
{
"FAMILY_ID":"5700000104484984",
"HOUSEHOLDERNAME":"陈随朝",
"RANLIAO":"其他",
"POORLAT":34.304794,
"POORLON":108.188805
},
{
"FAMILY_ID":"5700000117123752",
"HOUSEHOLDERNAME":"李永鹏",
"RANLIAO":"其他",
"POORLAT":34.727432,
"POORLON":108.8666
},
{
"FAMILY_ID":"100000112777984",
"HOUSEHOLDERNAME":"左争捐",
"RANLIAO":"其他",
"POORLAT":34.4345779418945,
"POORLON":108.330764770508
},
{
"FAMILY_ID":"5700000104858361",
"HOUSEHOLDERNAME":"吴灵芝",
"RANLIAO":"其他",
"POORLAT":null,
"POORLON":null
},
{
"FAMILY_ID":"100000115854525",
"HOUSEHOLDERNAME":"白粉红",
"RANLIAO":"其他",
"POORLAT":null,
"POORLON":null
},
{
"FAMILY_ID":"100000123945028",
"HOUSEHOLDERNAME":"何光明",
"RANLIAO":"其他",
"POORLAT":34.495876,
"POORLON":108.36939
},
{
"FAMILY_ID":"5700000104985313",
"HOUSEHOLDERNAME":"金科锋",
"RANLIAO":"其他",
"POORLAT":34.42584,
"POORLON":108.31147
},
{
"FAMILY_ID":"100000115327439",
"HOUSEHOLDERNAME":"马燕婷",
"RANLIAO":"其他",
"POORLAT":34.3531156651518,
"POORLON":108.19915327034
},
{
"FAMILY_ID":"5700000139881037",
"HOUSEHOLDERNAME":"李选民",
"RANLIAO":"其他",
"POORLAT":34.599606,
"POORLON":108.150856
},
{
"FAMILY_ID":"100000115442642",
"HOUSEHOLDERNAME":"李棒生",
"RANLIAO":"其他",
"POORLAT":34.38426,
"POORLON":108.19069
},
{
"FAMILY_ID":"5700000105446757",
"HOUSEHOLDERNAME":"梁淑侠",
"RANLIAO":"其他",
"POORLAT":34.376194,
"POORLON":108.18645
},
{
"FAMILY_ID":"5700000106360958",
"HOUSEHOLDERNAME":"袁会云",
"RANLIAO":"其他",
"POORLAT":34.53247,
"POORLON":108.230675
},
{
"FAMILY_ID":"100000153790366",
"HOUSEHOLDERNAME":"张正义",
"RANLIAO":"其他",
"POORLAT":34.95726,
"POORLON":108.0012
},
{
"FAMILY_ID":"5700000104666227",
"HOUSEHOLDERNAME":"孟云龙",
"RANLIAO":"其他",
"POORLAT":34.4432049314919,
"POORLON":108.174172859584
},
{
"FAMILY_ID":"100000106350635",
"HOUSEHOLDERNAME":"王秀芳",
"RANLIAO":"其他",
"POORLAT":34.4728813171387,
"POORLON":108.160774230957
},
{
"FAMILY_ID":"5700000105479139",
"HOUSEHOLDERNAME":"李春景",
"RANLIAO":"其他",
"POORLAT":null,
"POORLON":null
},
{
"FAMILY_ID":"100000138084410",
"HOUSEHOLDERNAME":"周计会",
"RANLIAO":"其他",
"POORLAT":34.56228,
"POORLON":108.32326
},
{
"FAMILY_ID":"100000102222731",
"HOUSEHOLDERNAME":"杨井明",
"RANLIAO":"其他",
"POORLAT":34.49351,
"POORLON":108.1216
},
{
"FAMILY_ID":"5700000019607820",
"HOUSEHOLDERNAME":"赵麦花",
"RANLIAO":"其他",
"POORLAT":34.7130712868716,
"POORLON":108.225296473983
},
{
"FAMILY_ID":"100000133821652",
"HOUSEHOLDERNAME":"何世有",
"RANLIAO":"其他",
"POORLAT":34.7522338579534,
"POORLON":108.835016638351
},
{
"FAMILY_ID":"100000144354161",
"HOUSEHOLDERNAME":"李双学",
"RANLIAO":"其他",
"POORLAT":35.1335723823278,
"POORLON":107.997493752235
},
{
"FAMILY_ID":"5700000107923112",
"HOUSEHOLDERNAME":"李伟",
"RANLIAO":"其他",
"POORLAT":34.3161200478064,
"POORLON":108.295315868059
},
{
"FAMILY_ID":"3117380621",
"HOUSEHOLDERNAME":"弥改侠",
"RANLIAO":"其他",
"POORLAT":35.1320394862986,
"POORLON":107.996947517806
},
{
"FAMILY_ID":"5700000109470184",
"HOUSEHOLDERNAME":"郭涛",
"RANLIAO":"其他",
"POORLAT":34.7084303972763,
"POORLON":108.267385422628
},
{
"FAMILY_ID":"5700000104299565",
"HOUSEHOLDERNAME":"宋立国",
"RANLIAO":"其他",
"POORLAT":null,
"POORLON":null
},
{
"FAMILY_ID":"3117508548",
"HOUSEHOLDERNAME":"石绸子",
"RANLIAO":"其他",
"POORLAT":null,
"POORLON":null
},
{
"FAMILY_ID":"100000142246993",
"HOUSEHOLDERNAME":"杜三民",
"RANLIAO":"其他",
"POORLAT":35.1336866917114,
"POORLON":107.997359552521
},
{
"FAMILY_ID":"100000145377033",
"HOUSEHOLDERNAME":"白荣",
"RANLIAO":"其他",
"POORLAT":34.281525385625,
"POORLON":108.310247995443
},
{
"FAMILY_ID":"100000145979569",
"HOUSEHOLDERNAME":"辛树旺",
"RANLIAO":"其他",
"POORLAT":35.1682245094156,
"POORLON":107.987266948383
},
{
"FAMILY_ID":"100000273265646",
"HOUSEHOLDERNAME":"姜莲贞",
"RANLIAO":"其他",
"POORLAT":34.23741,
"POORLON":108.47611
},
{
"FAMILY_ID":"100000158761700",
"HOUSEHOLDERNAME":"第伍战群",
"RANLIAO":"其他",
"POORLAT":35.0229231781259,
"POORLON":108.123658194291
},
{
"FAMILY_ID":"100000119282221",
"HOUSEHOLDERNAME":"元润选",
"RANLIAO":"其他",
"POORLAT":null,
"POORLON":null
},
{
"FAMILY_ID":"5700000105002123",
"HOUSEHOLDERNAME":"任兰英",
"RANLIAO":"其他",
"POORLAT":34.2457021474838,
"POORLON":108.372738599777
},
{
"FAMILY_ID":"5700000055662177",
"HOUSEHOLDERNAME":"马教化",
"RANLIAO":"其他",
"POORLAT":35.1901577040744,
"POORLON":108.022829091559
},
{
"FAMILY_ID":"100000145410224",
"HOUSEHOLDERNAME":"郭兴林",
"RANLIAO":"其他",
"POORLAT":35.0338636481356,
"POORLON":108.1255019906
},
{
"FAMILY_ID":"5700000123861563",
"HOUSEHOLDERNAME":"赵战会",
"RANLIAO":"其他",
"POORLAT":34.3343572092606,
"POORLON":108.707153773622
},
{
"FAMILY_ID":"100000144703009",
"HOUSEHOLDERNAME":"薛永贵",
"RANLIAO":"其他",
"POORLAT":null,
"POORLON":null
},
{
"FAMILY_ID":"100000282243096",
"HOUSEHOLDERNAME":"郝长长",
"RANLIAO":"其他",
"POORLAT":34.3305932760239,
"POORLON":108.704425644875
},
{
"FAMILY_ID":"100000104583071",
"HOUSEHOLDERNAME":"魏立新",
"RANLIAO":"其他",
"POORLAT":34.574390356775,
"POORLON":108.895832351016
},
{
"FAMILY_ID":"3117368981",
"HOUSEHOLDERNAME":"田振峰",
"RANLIAO":"其他",
"POORLAT":34.267616,
"POORLON":108.33615
},
{
"FAMILY_ID":"5700000105538986",
"HOUSEHOLDERNAME":"刘建社",
"RANLIAO":"其他",
"POORLAT":34.6814154863358,
"POORLON":108.261614394188
},
{
"FAMILY_ID":"100000281547187",
"HOUSEHOLDERNAME":"韩艳会",
"RANLIAO":"其他",
"POORLAT":34.41645,
"POORLON":108.5387
},
{
"FAMILY_ID":"100000282219976",
"HOUSEHOLDERNAME":"赵联民",
"RANLIAO":"其他",
"POORLAT":34.415314,
"POORLON":108.537285
},
{
"FAMILY_ID":"100000148384143",
"HOUSEHOLDERNAME":"陈茂胜",
"RANLIAO":"其他",
"POORLAT":34.597004,
"POORLON":108.14971
},
{
"FAMILY_ID":"100000145646310",
"HOUSEHOLDERNAME":"辛彬科",
"RANLIAO":"其他",
"POORLAT":35.1299729764557,
"POORLON":107.999051368335
},
{
"FAMILY_ID":"100000135787628",
"HOUSEHOLDERNAME":"袁志清",
"RANLIAO":"其他",
"POORLAT":35.1523842654256,
"POORLON":108.176461490134
},
{
"FAMILY_ID":"100000114418772",
"HOUSEHOLDERNAME":"娄桂英",
"RANLIAO":"其他",
"POORLAT":34.4103889465332,
"POORLON":108.18920135498
},
{
"FAMILY_ID":"100000201288366",
"HOUSEHOLDERNAME":"杨三友",
"RANLIAO":"其他",
"POORLAT":34.6332602500916,
"POORLON":108.050652384758
},
{
"FAMILY_ID":"3117384179",
"HOUSEHOLDERNAME":"郝西院",
"RANLIAO":"其他",
"POORLAT":34.302467,
"POORLON":108.3289
},
{
"FAMILY_ID":"5700000105661884",
"HOUSEHOLDERNAME":"张库库",
"RANLIAO":"其他",
"POORLAT":34.342377,
"POORLON":108.17953
},
{
"FAMILY_ID":"100000132503896",
"HOUSEHOLDERNAME":"吴相波",
"RANLIAO":"其他",
"POORLAT":34.233376,
"POORLON":108.466705
},
{
"FAMILY_ID":"3117535834",
"HOUSEHOLDERNAME":"郝虎社",
"RANLIAO":"其他",
"POORLAT":34.30185,
"POORLON":108.32725
},
{
"FAMILY_ID":"100000153076164",
"HOUSEHOLDERNAME":"郭珍英",
"RANLIAO":"其他",
"POORLAT":null,
"POORLON":null
},
{
"FAMILY_ID":"100000114403720",
"HOUSEHOLDERNAME":"刘旭辉",
"RANLIAO":"其他",
"POORLAT":34.3765068054199,
"POORLON":108.186454772949
},
{
"FAMILY_ID":"3117360355",
"HOUSEHOLDERNAME":"李美格",
"RANLIAO":"其他",
"POORLAT":null,
"POORLON":null
},
{
"FAMILY_ID":"100000117319048",
"HOUSEHOLDERNAME":"王党弟",
"RANLIAO":"其他",
"POORLAT":34.3764491081238,
"POORLON":108.186524391174
},
{
"FAMILY_ID":"100000145817295",
"HOUSEHOLDERNAME":"穆雨桐",
"RANLIAO":"其他",
"POORLAT":35.1337876683095,
"POORLON":107.997509663281
},
{
"FAMILY_ID":"3117384476",
"HOUSEHOLDERNAME":"席平良",
"RANLIAO":"其他",
"POORLAT":35.13268,
"POORLON":107.997444
},
{
"FAMILY_ID":"100000162475385",
"HOUSEHOLDERNAME":"程亚婷",
"RANLIAO":"其他",
"POORLAT":35.1184442207691,
"POORLON":107.968142244233
},
{
"FAMILY_ID":"100000122040700",
"HOUSEHOLDERNAME":"鲁引仓",
"RANLIAO":"其他",
"POORLAT":null,
"POORLON":null
},
{
"FAMILY_ID":"100000145158789",
"HOUSEHOLDERNAME":"郭祥",
"RANLIAO":"其他",
"POORLAT":34.9722940933816,
"POORLON":107.998721966264
},
{
"FAMILY_ID":"100000109453076",
"HOUSEHOLDERNAME":"董合队",
"RANLIAO":"其他",
"POORLAT":null,
"POORLON":null
},
{
"FAMILY_ID":"100000130662214",
"HOUSEHOLDERNAME":"韩军社",
"RANLIAO":"其他",
"POORLAT":34.4314246693972,
"POORLON":108.218376953302
},
{
"FAMILY_ID":"100000154022622",
"HOUSEHOLDERNAME":"姜德安",
"RANLIAO":"其他",
"POORLAT":null,
"POORLON":null
},
{
"FAMILY_ID":"100000154750710",
"HOUSEHOLDERNAME":"杨存喜",
"RANLIAO":"其他",
"POORLAT":null,
"POORLON":null
},
{
"FAMILY_ID":"100000272932946",
"HOUSEHOLDERNAME":"李密峰",
"RANLIAO":"其他",
"POORLAT":34.4164456531739,
"POORLON":108.222845976088
},
{
"FAMILY_ID":"100000129336355",
"HOUSEHOLDERNAME":"吴四平",
"RANLIAO":"其他",
"POORLAT":34.233376,
"POORLON":108.466705
},
{
"FAMILY_ID":"100000128910628",
"HOUSEHOLDERNAME":"尚社教",
"RANLIAO":"其他",
"POORLAT":null,
"POORLON":null
},
{
"FAMILY_ID":"5700000014073197",
"HOUSEHOLDERNAME":"郭武生",
"RANLIAO":"其他",
"POORLAT":34.3316748142242,
"POORLON":108.450090527534
},
{
"FAMILY_ID":"100000128441579",
"HOUSEHOLDERNAME":"吴护强",
"RANLIAO":"其他",
"POORLAT":34.236862,
"POORLON":108.477745
},
{
"FAMILY_ID":"5700000107215980",
"HOUSEHOLDERNAME":"苏科海",
"RANLIAO":"其他",
"POORLAT":null,
"POORLON":null
},
{
"FAMILY_ID":"100000137724569",
"HOUSEHOLDERNAME":"杨继飞",
"RANLIAO":"其他",
"POORLAT":34.238182,
"POORLON":108.48506
},
{
"FAMILY_ID":"5700000120930377",
"HOUSEHOLDERNAME":"张恩社",
"RANLIAO":"其他",
"POORLAT":34.2299842338504,
"POORLON":108.458116820462
},
{
"FAMILY_ID":"3117481548",
"HOUSEHOLDERNAME":"任爱莲",
"RANLIAO":"其他",
"POORLAT":null,
"POORLON":null
},
{
"FAMILY_ID":"100000123666171",
"HOUSEHOLDERNAME":"祁忠昌",
"RANLIAO":"其他",
"POORLAT":34.552082,
"POORLON":108.791885
},
{
"FAMILY_ID":"100000108901617",
"HOUSEHOLDERNAME":"刘讲讲",
"RANLIAO":"其他",
"POORLAT":34.27758,
"POORLON":108.484726
},
{
"FAMILY_ID":"100000109053618",
"HOUSEHOLDERNAME":"何参兵",
"RANLIAO":"其他",
"POORLAT":34.5791854858398,
"POORLON":108.204666137695
},
{
"FAMILY_ID":"100000262107314",
"HOUSEHOLDERNAME":"陈朋",
"RANLIAO":"其他",
"POORLAT":34.423397,
"POORLON":108.45965
},
{
"FAMILY_ID":"5700000117206250",
"HOUSEHOLDERNAME":"任建存",
"RANLIAO":"其他",
"POORLAT":35.1527761697769,
"POORLON":107.992068481445
},
{
"FAMILY_ID":"5700000120886080",
"HOUSEHOLDERNAME":"潘春涛",
"RANLIAO":"其他",
"POORLAT":35.217543721199,
"POORLON":108.047579407692
},
{
"FAMILY_ID":"5700000106050008",
"HOUSEHOLDERNAME":"王行柱",
"RANLIAO":"其他",
"POORLAT":null,
"POORLON":null
},
{
"FAMILY_ID":"100000126939235",
"HOUSEHOLDERNAME":"于开长",
"RANLIAO":"其他",
"POORLAT":null,
"POORLON":null
},
{
"FAMILY_ID":"5700000032836640",
"HOUSEHOLDERNAME":"任宏学",
"RANLIAO":"其他",
"POORLAT":35.1537203073502,
"POORLON":107.992460083962
},
{
"FAMILY_ID":"3117519070",
"HOUSEHOLDERNAME":"赵战飞",
"RANLIAO":"其他",
"POORLAT":34.2404120445251,
"POORLON":108.343217921257
},
{
"FAMILY_ID":"100000133371839",
"HOUSEHOLDERNAME":"严俊歧",
"RANLIAO":"其他",
"POORLAT":34.6357157562487,
"POORLON":108.229406308364
},
{
"FAMILY_ID":"100000140935508",
"HOUSEHOLDERNAME":"赵芝眉",
"RANLIAO":"其他",
"POORLAT":34.241116,
"POORLON":108.49074
},
{
"FAMILY_ID":"5700000112959418",
"HOUSEHOLDERNAME":"李小宁",
"RANLIAO":"其他",
"POORLAT":34.9802082061768,
"POORLON":108.007716488838
},
{
"FAMILY_ID":"100000127408090",
"HOUSEHOLDERNAME":"员小鸽",
"RANLIAO":"其他",
"POORLAT":34.2568,
"POORLON":108.45152
},
{
"FAMILY_ID":"100000252839295",
"HOUSEHOLDERNAME":"宋列政",
"RANLIAO":"其他",
"POORLAT":35.0801848649979,
"POORLON":107.984493923187
},
{
"FAMILY_ID":"100000392658972",
"HOUSEHOLDERNAME":"王军顺",
"RANLIAO":"其他",
"POORLAT":34.9312225019376,
"POORLON":108.097255467151
},
{
"FAMILY_ID":"5700000104209879",
"HOUSEHOLDERNAME":"孙玉德",
"RANLIAO":"其他",
"POORLAT":34.5428924560547,
"POORLON":108.253311157227
},
{
"FAMILY_ID":"100000140943355",
"HOUSEHOLDERNAME":"王小羊",
"RANLIAO":"其他",
"POORLAT":34.237144,
"POORLON":108.486244
},
{
"FAMILY_ID":"100000140111628",
"HOUSEHOLDERNAME":"张富社",
"RANLIAO":"其他",
"POORLAT":34.238274,
"POORLON":108.487236
},
{
"FAMILY_ID":"100000122888510",
"HOUSEHOLDERNAME":"刘新武",
"RANLIAO":"其他",
"POORLAT":34.571297,
"POORLON":108.82399
},
{
"FAMILY_ID":"5700000042572302",
"HOUSEHOLDERNAME":"祝宝珍",
"RANLIAO":"其他",
"POORLAT":34.4595096914348,
"POORLON":108.049700936387
},
{
"FAMILY_ID":"100000144993715",
"HOUSEHOLDERNAME":"杨百喜",
"RANLIAO":"其他",
"POORLAT":35.0361268997192,
"POORLON":108.115593929589
},
{
"FAMILY_ID":"100000267850288",
"HOUSEHOLDERNAME":"杨水县",
"RANLIAO":"其他",
"POORLAT":34.27738,
"POORLON":108.483
},
{
"FAMILY_ID":"100000142534401",
"HOUSEHOLDERNAME":"文金儒",
"RANLIAO":"其他",
"POORLAT":35.1181595802307,
"POORLON":108.093606185913
},
{
"FAMILY_ID":"100000146590896",
"HOUSEHOLDERNAME":"张西川",
"RANLIAO":"其他",
"POORLAT":34.260887,
"POORLON":108.4826
},
{
"FAMILY_ID":"100000273473858",
"HOUSEHOLDERNAME":"吴文德",
"RANLIAO":"其他",
"POORLAT":34.25202,
"POORLON":108.44505
},
{
"FAMILY_ID":"100000133155713",
"HOUSEHOLDERNAME":"郭德慨",
"RANLIAO":"其他",
"POORLAT":34.256775,
"POORLON":108.43299
},
{
"FAMILY_ID":"100000152252842",
"HOUSEHOLDERNAME":"张晓俊",
"RANLIAO":"其他",
"POORLAT":34.460926,
"POORLON":108.29113
},
{
"FAMILY_ID":"3117363314",
"HOUSEHOLDERNAME":"王忠儒",
"RANLIAO":"其他",
"POORLAT":null,
"POORLON":null
},
{
"FAMILY_ID":"100000134196119",
"HOUSEHOLDERNAME":"王孝荣",
"RANLIAO":"其他",
"POORLAT":34.2300673046529,
"POORLON":108.465537392716
},
{
"FAMILY_ID":"100000144233765",
"HOUSEHOLDERNAME":"赵特库",
"RANLIAO":"其他",
"POORLAT":34.26011,
"POORLON":108.48148
},
{
"FAMILY_ID":"5700000108346267",
"HOUSEHOLDERNAME":"张万选",
"RANLIAO":"其他",
"POORLAT":34.57871,
"POORLON":108.22951
},
{
"FAMILY_ID":"3117414889",
"HOUSEHOLDERNAME":"冯红旗",
"RANLIAO":"其他",
"POORLAT":34.4282967637564,
"POORLON":108.03211178853
},
{
"FAMILY_ID":"5700000117496675",
"HOUSEHOLDERNAME":"刘臣旺",
"RANLIAO":"其他",
"POORLAT":35.0872261842704,
"POORLON":108.06795994453
},
{
"FAMILY_ID":"5700000032393053",
"HOUSEHOLDERNAME":"席珍兰",
"RANLIAO":"其他",
"POORLAT":35.1337103844229,
"POORLON":107.997469131589
},
{
"FAMILY_ID":"100000152459667",
"HOUSEHOLDERNAME":"赵小彩",
"RANLIAO":"其他",
"POORLAT":34.4672508055878,
"POORLON":108.28630993248
},
{
"FAMILY_ID":"100000144544157",
"HOUSEHOLDERNAME":"赵建设",
"RANLIAO":"其他",
"POORLAT":34.27762,
"POORLON":108.48449
},
{
"FAMILY_ID":"5700000105131184",
"HOUSEHOLDERNAME":"宋绒线",
"RANLIAO":"其他",
"POORLAT":34.333557,
"POORLON":108.24286
},
{
"FAMILY_ID":"100000128405493",
"HOUSEHOLDERNAME":"毛家会",
"RANLIAO":"其他",
"POORLAT":34.254513,
"POORLON":108.44194
},
{
"FAMILY_ID":"100000146775832",
"HOUSEHOLDERNAME":"安正民",
"RANLIAO":"其他",
"POORLAT":35.1089631572169,
"POORLON":108.000330111214
},
{
"FAMILY_ID":"100000157209871",
"HOUSEHOLDERNAME":"田秀莲",
"RANLIAO":"其他",
"POORLAT":34.322384,
"POORLON":108.32739
},
{
"FAMILY_ID":"100000128563762",
"HOUSEHOLDERNAME":"孟狼狼",
"RANLIAO":"其他",
"POORLAT":34.258034,
"POORLON":108.43968
},
{
"FAMILY_ID":"100000154097255",
"HOUSEHOLDERNAME":"李兴唐",
"RANLIAO":"其他",
"POORLAT":35.0247146325997,
"POORLON":108.102851143643
},
{
"FAMILY_ID":"100000154120618",
"HOUSEHOLDERNAME":"郭香善",
"RANLIAO":"其他",
"POORLAT":35.0249224682611,
"POORLON":108.102253436594
},
{
"FAMILY_ID":"5700000105142086",
"HOUSEHOLDERNAME":"上阿平",
"RANLIAO":"其他",
"POORLAT":34.434414,
"POORLON":108.30645
},
{
"FAMILY_ID":"100000105616165",
"HOUSEHOLDERNAME":"王俊松",
"RANLIAO":"其他",
"POORLAT":34.480766,
"POORLON":108.146095
},
{
"FAMILY_ID":"5700000105213313",
"HOUSEHOLDERNAME":"宁锋儒",
"RANLIAO":"其他",
"POORLAT":34.396515,
"POORLON":108.301765
},
{
"FAMILY_ID":"100000139972643",
"HOUSEHOLDERNAME":"刘一文",
"RANLIAO":"其他",
"POORLAT":null,
"POORLON":null
},
{
"FAMILY_ID":"100000136536860",
"HOUSEHOLDERNAME":"英俊芳",
"RANLIAO":"其他",
"POORLAT":34.26381,
"POORLON":108.47399
},
{
"FAMILY_ID":"100000276287781",
"HOUSEHOLDERNAME":"王会茹",
"RANLIAO":"其他",
"POORLAT":34.54335,
"POORLON":108.77598
},
{
"FAMILY_ID":"100000152401355",
"HOUSEHOLDERNAME":"赵宏兴",
"RANLIAO":"其他",
"POORLAT":34.4610146850326,
"POORLON":108.294989269964
},
{
"FAMILY_ID":"3117532995",
"HOUSEHOLDERNAME":"席晓昆",
"RANLIAO":"其他",
"POORLAT":null,
"POORLON":null
},
{
"FAMILY_ID":"100000113995076",
"HOUSEHOLDERNAME":"李爱芹",
"RANLIAO":"其他",
"POORLAT":34.2466347694397,
"POORLON":108.342171859741
},
{
"FAMILY_ID":"5700000029769713",
"HOUSEHOLDERNAME":"李巡路",
"RANLIAO":"其他",
"POORLAT":null,
"POORLON":null
},
{
"FAMILY_ID":"5700000029431884",
"HOUSEHOLDERNAME":"董建强",
"RANLIAO":"其他",
"POORLAT":null,
"POORLON":null
},
{
"FAMILY_ID":"100000159197454",
"HOUSEHOLDERNAME":"王素琴",
"RANLIAO":"其他",
"POORLAT":34.5413856506348,
"POORLON":108.253288269043
},
{
"FAMILY_ID":"5700000105626239",
"HOUSEHOLDERNAME":"杜宁侠",
"RANLIAO":"其他",
"POORLAT":34.429043,
"POORLON":108.12199
},
{
"FAMILY_ID":"100000265815964",
"HOUSEHOLDERNAME":"赵代处",
"RANLIAO":"其他",
"POORLAT":null,
"POORLON":null
},
{
"FAMILY_ID":"100000275156328",
"HOUSEHOLDERNAME":"巨联国",
"RANLIAO":"其他",
"POORLAT":34.27085,
"POORLON":108.44005
},
{
"FAMILY_ID":"100000273144396",
"HOUSEHOLDERNAME":"马建军",
"RANLIAO":"其他",
"POORLAT":34.24726,
"POORLON":108.4769
},
{
"FAMILY_ID":"100000255236915",
"HOUSEHOLDERNAME":"梁飞宇",
"RANLIAO":"其他",
"POORLAT":null,
"POORLON":null
},
{
"FAMILY_ID":"5700000122162967",
"HOUSEHOLDERNAME":"张从英",
"RANLIAO":"其他",
"POORLAT":34.2779754715774,
"POORLON":108.587188184657
},
{
"FAMILY_ID":"5700000014094291",
"HOUSEHOLDERNAME":"周锁锁",
"RANLIAO":"其他",
"POORLAT":34.6063189983368,
"POORLON":108.253235173225
},
{
"FAMILY_ID":"5700000013696580",
"HOUSEHOLDERNAME":"孟凯",
"RANLIAO":"其他",
"POORLAT":34.25747,
"POORLON":108.43959
},
{
"FAMILY_ID":"100000106435225",
"HOUSEHOLDERNAME":"王建刚",
"RANLIAO":"其他",
"POORLAT":34.48285,
"POORLON":108.14485
},
{
"FAMILY_ID":"100000134340379",
"HOUSEHOLDERNAME":"张世成",
"RANLIAO":"其他",
"POORLAT":34.5595653057098,
"POORLON":108.811222791672
},
{
"FAMILY_ID":"5700000116020280",
"HOUSEHOLDERNAME":"李四定",
"RANLIAO":"其他",
"POORLAT":34.6636012898526,
"POORLON":108.63473543073
},
{
"FAMILY_ID":"5700000015865271",
"HOUSEHOLDERNAME":"韩瑞康",
"RANLIAO":"其他",
"POORLAT":34.58597,
"POORLON":108.65781
},
{
"FAMILY_ID":"100000117570995",
"HOUSEHOLDERNAME":"黄让忠",
"RANLIAO":"其他",
"POORLAT":34.3305932760239,
"POORLON":108.704425644875
},
{
"FAMILY_ID":"5700000103903305",
"HOUSEHOLDERNAME":"张群社",
"RANLIAO":"其他",
"POORLAT":34.36945,
"POORLON":108.42639
},
{
"FAMILY_ID":"5700000117808289",
"HOUSEHOLDERNAME":"颜长峰",
"RANLIAO":"其他",
"POORLAT":34.46658,
"POORLON":108.195724
},
{
"FAMILY_ID":"100000140287346",
"HOUSEHOLDERNAME":"李顺永",
"RANLIAO":"其他",
"POORLAT":34.5670751437071,
"POORLON":108.669893172293
},
{
"FAMILY_ID":"100000259173755",
"HOUSEHOLDERNAME":"李志强",
"RANLIAO":"其他",
"POORLAT":34.5424468543458,
"POORLON":108.610323484144
},
{
"FAMILY_ID":"100000282086653",
"HOUSEHOLDERNAME":"孔修路",
"RANLIAO":"其他",
"POORLAT":34.421223,
"POORLON":108.53409
},
{
"FAMILY_ID":"5700000104268487",
"HOUSEHOLDERNAME":"黄小素",
"RANLIAO":"其他",
"POORLAT":34.3122248783492,
"POORLON":108.558847626007
},
{
"FAMILY_ID":"5700000124273004",
"HOUSEHOLDERNAME":"张杰",
"RANLIAO":"其他",
"POORLAT":34.5544206249388,
"POORLON":108.787605323528
},
{
"FAMILY_ID":"5700000104520018",
"HOUSEHOLDERNAME":"杜彩云",
"RANLIAO":"其他",
"POORLAT":34.7043698310852,
"POORLON":108.333932113647
},
{
"FAMILY_ID":"5700000107449901",
"HOUSEHOLDERNAME":"詹树林",
"RANLIAO":"其他",
"POORLAT":34.3305932760239,
"POORLON":108.704425644875
},
{
"FAMILY_ID":"5700000105287867",
"HOUSEHOLDERNAME":"秋亚飞",
"RANLIAO":"其他",
"POORLAT":34.4690098762512,
"POORLON":108.210090041161
},
{
"FAMILY_ID":"3117442794",
"HOUSEHOLDERNAME":"齐有友",
"RANLIAO":"其他",
"POORLAT":null,
"POORLON":null
},
{
"FAMILY_ID":"100000139306923",
"HOUSEHOLDERNAME":"李得英",
"RANLIAO":"其他",
"POORLAT":null,
"POORLON":null
},
{
"FAMILY_ID":"100000266959322",
"HOUSEHOLDERNAME":"史柔柔",
"RANLIAO":"其他",
"POORLAT":null,
"POORLON":null
},
{
"FAMILY_ID":"5700000105919946",
"HOUSEHOLDERNAME":"王小锋",
"RANLIAO":"其他",
"POORLAT":34.5219521576824,
"POORLON":108.064451310995
},
{
"FAMILY_ID":"3117373897",
"HOUSEHOLDERNAME":"朱张群",
"RANLIAO":"其他",
"POORLAT":35.0246857445021,
"POORLON":108.102233594797
},
{
"FAMILY_ID":"100000241738079",
"HOUSEHOLDERNAME":"王海雷",
"RANLIAO":"其他",
"POORLAT":34.41085,
"POORLON":108.41554
},
{
"FAMILY_ID":"100000139086335",
"HOUSEHOLDERNAME":"李建营",
"RANLIAO":"其他",
"POORLAT":null,
"POORLON":null
},
{
"FAMILY_ID":"5700000108604493",
"HOUSEHOLDERNAME":"杨车车",
"RANLIAO":"其他",
"POORLAT":34.294296161877,
"POORLON":108.533945115509
},
{
"FAMILY_ID":"100000127638901",
"HOUSEHOLDERNAME":"张民权",
"RANLIAO":"其他",
"POORLAT":34.261284,
"POORLON":108.455635
},
{
"FAMILY_ID":"5700000013668755",
"HOUSEHOLDERNAME":"张彦升",
"RANLIAO":"其他",
"POORLAT":34.259003,
"POORLON":108.457436
},
{
"FAMILY_ID":"100000131842127",
"HOUSEHOLDERNAME":"孟风云",
"RANLIAO":"其他",
"POORLAT":34.23023,
"POORLON":108.44008
},
{
"FAMILY_ID":"100000146841269",
"HOUSEHOLDERNAME":"吕振振",
"RANLIAO":"其他",
"POORLAT":34.2712641954422,
"POORLON":108.483679652214
},
{
"FAMILY_ID":"5700000112565682",
"HOUSEHOLDERNAME":"刘左官",
"RANLIAO":"其他",
"POORLAT":34.272846,
"POORLON":108.44273
},
{
"FAMILY_ID":"100000152014706",
"HOUSEHOLDERNAME":"王佳妙",
"RANLIAO":"其他",
"POORLAT":34.285038,
"POORLON":108.5742
},
{
"FAMILY_ID":"100000131478474",
"HOUSEHOLDERNAME":"水建安",
"RANLIAO":"其他",
"POORLAT":34.3305932760239,
"POORLON":108.704425644875
},
{
"FAMILY_ID":"100000140237204",
"HOUSEHOLDERNAME":"赵秀山",
"RANLIAO":"其他",
"POORLAT":34.3305932760239,
"POORLON":108.704425644875
},
{
"FAMILY_ID":"5700000110434140",
"HOUSEHOLDERNAME":"杨志文",
"RANLIAO":"其他",
"POORLAT":34.306435,
"POORLON":108.53951
},
{
"FAMILY_ID":"100000136870130",
"HOUSEHOLDERNAME":"任俊义",
"RANLIAO":"其他",
"POORLAT":34.4030876159668,
"POORLON":108.155281066895
},
{
"FAMILY_ID":"100000239808006",
"HOUSEHOLDERNAME":"张斌",
"RANLIAO":"其他",
"POORLAT":34.6885057930455,
"POORLON":108.38790206952
},
{
"FAMILY_ID":"100000141069410",
"HOUSEHOLDERNAME":"李海均",
"RANLIAO":"其他",
"POORLAT":35.1300238985674,
"POORLON":107.998848602921
},
{
"FAMILY_ID":"3117522189",
"HOUSEHOLDERNAME":"马芳梅",
"RANLIAO":"其他",
"POORLAT":35.1336307576617,
"POORLON":107.996899810433
},
{
"FAMILY_ID":"100000139530534",
"HOUSEHOLDERNAME":"豆新运",
"RANLIAO":"其他",
"POORLAT":35.1315223455429,
"POORLON":108.000354495645
},
{
"FAMILY_ID":"5700000011351631",
"HOUSEHOLDERNAME":"豆建锋",
"RANLIAO":"其他",
"POORLAT":35.1335500955582,
"POORLON":107.99617125541
},
{
"FAMILY_ID":"100000144394875",
"HOUSEHOLDERNAME":"李西彬",
"RANLIAO":"其他",
"POORLAT":null,
"POORLON":null
},
{
"FAMILY_ID":"5700000122979290",
"HOUSEHOLDERNAME":"李正",
"RANLIAO":"其他",
"POORLAT":34.6390533447266,
"POORLON":108.773361206055
},
{
"FAMILY_ID":"5700000103968531",
"HOUSEHOLDERNAME":"王生超",
"RANLIAO":"其他",
"POORLAT":34.53612,
"POORLON":108.2582
},
{
"FAMILY_ID":"5700000103690143",
"HOUSEHOLDERNAME":"赵康康",
"RANLIAO":"其他",
"POORLAT":34.36105,
"POORLON":108.45515
},
{
"FAMILY_ID":"100000111993513",
"HOUSEHOLDERNAME":"赵年今",
"RANLIAO":"其他",
"POORLAT":34.607163059059,
"POORLON":108.9270583725
},
{
"FAMILY_ID":"100000154044791",
"HOUSEHOLDERNAME":"王银录",
"RANLIAO":"其他",
"POORLAT":35.1077291312295,
"POORLON":107.980466607901
},
{
"FAMILY_ID":"100000141933597",
"HOUSEHOLDERNAME":"张鸿喜",
"RANLIAO":"其他",
"POORLAT":34.231,
"POORLON":108.4232
},
{
"FAMILY_ID":"100000121629872",
"HOUSEHOLDERNAME":"刘新宽",
"RANLIAO":"其他",
"POORLAT":34.3305932760239,
"POORLON":108.704425644875
},
{
"FAMILY_ID":"100000266058886",
"HOUSEHOLDERNAME":"张志平",
"RANLIAO":"其他",
"POORLAT":34.7051998830764,
"POORLON":108.373083634493
},
{
"FAMILY_ID":"100000145569779",
"HOUSEHOLDERNAME":"李权恒",
"RANLIAO":"其他",
"POORLAT":35.1623201564919,
"POORLON":108.009243877641
},
{
"FAMILY_ID":"3117383408",
"HOUSEHOLDERNAME":"闫军长",
"RANLIAO":"其他",
"POORLAT":35.130021301345,
"POORLON":107.998811783509
},
{
"FAMILY_ID":"3117379003",
"HOUSEHOLDERNAME":"闫均奎",
"RANLIAO":"其他",
"POORLAT":35.129376578331,
"POORLON":107.99951865226
},
{
"FAMILY_ID":"100000239859096",
"HOUSEHOLDERNAME":"张狗娃",
"RANLIAO":"其他",
"POORLAT":34.7054773932962,
"POORLON":108.374883315107
},
{
"FAMILY_ID":"100000266067702",
"HOUSEHOLDERNAME":"丁东生",
"RANLIAO":"其他",
"POORLAT":34.7055304809004,
"POORLON":108.380090717895
},
{
"FAMILY_ID":"5700000031486277",
"HOUSEHOLDERNAME":"罗孝锋",
"RANLIAO":"其他",
"POORLAT":35.2499165973037,
"POORLON":108.132533782574
},
{
"FAMILY_ID":"100000106675824",
"HOUSEHOLDERNAME":"张秋侠",
"RANLIAO":"其他",
"POORLAT":34.692047,
"POORLON":108.665474
},
{
"FAMILY_ID":"100000265893464",
"HOUSEHOLDERNAME":"张安文",
"RANLIAO":"其他",
"POORLAT":34.6693395146375,
"POORLON":108.387496115074
},
{
"FAMILY_ID":"5700000015807329",
"HOUSEHOLDERNAME":"赵俊英",
"RANLIAO":"其他",
"POORLAT":null,
"POORLON":null
},
{
"FAMILY_ID":"5700000107686570",
"HOUSEHOLDERNAME":"李卫东",
"RANLIAO":"其他",
"POORLAT":34.8017602536827,
"POORLON":108.353226584196
},
{
"FAMILY_ID":"3117514634",
"HOUSEHOLDERNAME":"杨清云",
"RANLIAO":"其他",
"POORLAT":null,
"POORLON":null
},
{
"FAMILY_ID":"5700000104864793",
"HOUSEHOLDERNAME":"虢振飞",
"RANLIAO":"其他",
"POORLAT":34.4158046579555,
"POORLON":108.502511197827
},
{
"FAMILY_ID":"3117400632",
"HOUSEHOLDERNAME":"王玉芹",
"RANLIAO":"其他",
"POORLAT":34.266205387529,
"POORLON":108.367969236907
},
{
"FAMILY_ID":"100000139650921",
"HOUSEHOLDERNAME":"赵珍香",
"RANLIAO":"其他",
"POORLAT":35.1304709196091,
"POORLON":108.000334043801
},
{
"FAMILY_ID":"100000242342047",
"HOUSEHOLDERNAME":"王正仁",
"RANLIAO":"其他",
"POORLAT":34.5766858694286,
"POORLON":108.353171055301
},
{
"FAMILY_ID":"5700000122158590",
"HOUSEHOLDERNAME":"梁振",
"RANLIAO":"其他",
"POORLAT":34.6836991858844,
"POORLON":108.775912614769
},
{
"FAMILY_ID":"100000123038366",
"HOUSEHOLDERNAME":"刘志杰",
"RANLIAO":"其他",
"POORLAT":null,
"POORLON":null
},
{
"FAMILY_ID":"100000470722216",
"HOUSEHOLDERNAME":"梁新旺",
"RANLIAO":"其他",
"POORLAT":35.1346758901097,
"POORLON":107.99658216451
},
{
"FAMILY_ID":"5700000105289262",
"HOUSEHOLDERNAME":"安小牛",
"RANLIAO":"其他",
"POORLAT":34.5731730014115,
"POORLON":108.818728228569
},
{
"FAMILY_ID":"100000239448385",
"HOUSEHOLDERNAME":"李长命",
"RANLIAO":"其他",
"POORLAT":34.7117038352612,
"POORLON":108.311924159093
},
{
"FAMILY_ID":"100000144520479",
"HOUSEHOLDERNAME":"王焕",
"RANLIAO":"其他",
"POORLAT":null,
"POORLON":null
},
{
"FAMILY_ID":"100000151623824",
"HOUSEHOLDERNAME":"郭二峰",
"RANLIAO":"其他",
"POORLAT":34.298054,
"POORLON":108.56854
},
{
"FAMILY_ID":"5700000110968296",
"HOUSEHOLDERNAME":"赵建国",
"RANLIAO":"其他",
"POORLAT":34.23106,
"POORLON":108.26515
},
{
"FAMILY_ID":"5700000104872437",
"HOUSEHOLDERNAME":"王国荣",
"RANLIAO":"其他",
"POORLAT":null,
"POORLON":null
},
{
"FAMILY_ID":"100000120774315",
"HOUSEHOLDERNAME":"刘撑民",
"RANLIAO":"其他",
"POORLAT":34.2383145570755,
"POORLON":108.337848138809
},
{
"FAMILY_ID":"100000253797840",
"HOUSEHOLDERNAME":"康敬昌",
"RANLIAO":"其他",
"POORLAT":34.7104120861801,
"POORLON":108.333658483597
},
{
"FAMILY_ID":"100000136303644",
"HOUSEHOLDERNAME":"屈麦玲",
"RANLIAO":"其他",
"POORLAT":34.5897529097667,
"POORLON":108.819821288379
},
{
"FAMILY_ID":"5700000034007826",
"HOUSEHOLDERNAME":"孙玉民",
"RANLIAO":"其他",
"POORLAT":35.2080725908279,
"POORLON":108.109989118576
},
{
"FAMILY_ID":"100000154321085",
"HOUSEHOLDERNAME":"焦俊盈",
"RANLIAO":"其他",
"POORLAT":35.1335742354393,
"POORLON":107.996692106873
},
{
"FAMILY_ID":"100000139668888",
"HOUSEHOLDERNAME":"豆存运",
"RANLIAO":"其他",
"POORLAT":35.1334532377642,
"POORLON":107.996519122341
},
{
"FAMILY_ID":"5700000124969343",
"HOUSEHOLDERNAME":"刘志英",
"RANLIAO":"其他",
"POORLAT":35.1273261820914,
"POORLON":108.010698602349
},
{
"FAMILY_ID":"100000153826355",
"HOUSEHOLDERNAME":"焦全民",
"RANLIAO":"其他",
"POORLAT":35.1137859761738,
"POORLON":107.986971060044
},
{
"FAMILY_ID":"5700000028484946",
"HOUSEHOLDERNAME":"张鑫超",
"RANLIAO":"其他",
"POORLAT":35.1059984445572,
"POORLON":107.989037585258
},
{
"FAMILY_ID":"100000284137674",
"HOUSEHOLDERNAME":"李志儒",
"RANLIAO":"其他",
"POORLAT":null,
"POORLON":null
},
{
"FAMILY_ID":"3117363346",
"HOUSEHOLDERNAME":"刘宽民",
"RANLIAO":"其他",
"POORLAT":35.1332711458206,
"POORLON":107.996525307
},
{
"FAMILY_ID":"5700000118195962",
"HOUSEHOLDERNAME":"雷大谋",
"RANLIAO":"其他",
"POORLAT":34.6888992786155,
"POORLON":108.868351286991
},
{
"FAMILY_ID":"5700000104921373",
"HOUSEHOLDERNAME":"虢明克",
"RANLIAO":"其他",
"POORLAT":null,
"POORLON":null
},
{
"FAMILY_ID":"100000239559953",
"HOUSEHOLDERNAME":"张长宏",
"RANLIAO":"其他",
"POORLAT":34.7970401525497,
"POORLON":108.399238538742
},
{
"FAMILY_ID":"100000140330226",
"HOUSEHOLDERNAME":"耿宗斌",
"RANLIAO":"其他",
"POORLAT":null,
"POORLON":null
},
{
"FAMILY_ID":"100000270747239",
"HOUSEHOLDERNAME":"晁升民",
"RANLIAO":"其他",
"POORLAT":34.365982,
"POORLON":108.381
},
{
"FAMILY_ID":"100000127899908",
"HOUSEHOLDERNAME":"王可立",
"RANLIAO":"其他",
"POORLAT":34.6747391146116,
"POORLON":108.898309690182
},
{
"FAMILY_ID":"100000123733283",
"HOUSEHOLDERNAME":"张志宏",
"RANLIAO":"其他",
"POORLAT":34.3305932760239,
"POORLON":108.704425644875
},
{
"FAMILY_ID":"100000276779488",
"HOUSEHOLDERNAME":"孙西武",
"RANLIAO":"其他",
"POORLAT":34.229637,
"POORLON":108.40728
},
{
"FAMILY_ID":"100000256626359",
"HOUSEHOLDERNAME":"董建娃",
"RANLIAO":"其他",
"POORLAT":34.5981576118618,
"POORLON":108.43341524601
},
{
"FAMILY_ID":"100000139937899",
"HOUSEHOLDERNAME":"程群香",
"RANLIAO":"其他",
"POORLAT":35.1443454510381,
"POORLON":108.003521472812
},
{
"FAMILY_ID":"100000242190367",
"HOUSEHOLDERNAME":"陈克社",
"RANLIAO":"其他",
"POORLAT":34.5979519825323,
"POORLON":108.346329401409
},
{
"FAMILY_ID":"100000134866164",
"HOUSEHOLDERNAME":"郭秦安",
"RANLIAO":"其他",
"POORLAT":34.5886941836729,
"POORLON":108.819729184374
},
{
"FAMILY_ID":"5700000104747804",
"HOUSEHOLDERNAME":"李炳发",
"RANLIAO":"其他",
"POORLAT":null,
"POORLON":null
},
{
"FAMILY_ID":"100000156588967",
"HOUSEHOLDERNAME":"王甲平",
"RANLIAO":"其他",
"POORLAT":35.0381156206131,
"POORLON":108.093999743462
},
{
"FAMILY_ID":"100000135234469",
"HOUSEHOLDERNAME":"王广福",
"RANLIAO":"其他",
"POORLAT":34.5877063700597,
"POORLON":108.820364269138
},
{
"FAMILY_ID":"100000260326869",
"HOUSEHOLDERNAME":"王海龙",
"RANLIAO":"其他",
"POORLAT":34.7609161615372,
"POORLON":108.304116678238
},
{
"FAMILY_ID":"100000134320659",
"HOUSEHOLDERNAME":"尚红军",
"RANLIAO":"其他",
"POORLAT":34.5863876010637,
"POORLON":108.819452681392
},
{
"FAMILY_ID":"100000136293682",
"HOUSEHOLDERNAME":"陈培真",
"RANLIAO":"其他",
"POORLAT":34.5853795583709,
"POORLON":108.820586202825
},
{
"FAMILY_ID":"100000255513951",
"HOUSEHOLDERNAME":"豆胜利",
"RANLIAO":"其他",
"POORLAT":34.7858124256134,
"POORLON":108.335739922523
},
{
"FAMILY_ID":"100000121544626",
"HOUSEHOLDERNAME":"董长守",
"RANLIAO":"其他",
"POORLAT":34.730373,
"POORLON":108.991615
},
{
"FAMILY_ID":"100000266539895",
"HOUSEHOLDERNAME":"杜国安",
"RANLIAO":"其他",
"POORLAT":34.4845858287478,
"POORLON":108.429523549059
},
{
"FAMILY_ID":"100000102799265",
"HOUSEHOLDERNAME":"胡齐齐",
"RANLIAO":"其他",
"POORLAT":null,
"POORLON":null
},
{
"FAMILY_ID":"5700000030274662",
"HOUSEHOLDERNAME":"程振锋",
"RANLIAO":"其他",
"POORLAT":34.6751479583359,
"POORLON":108.045006473541
},
{
"FAMILY_ID":"3117413919",
"HOUSEHOLDERNAME":"胡红军",
"RANLIAO":"其他",
"POORLAT":34.73085,
"POORLON":108.97905
},
{
"FAMILY_ID":"100000136306426",
"HOUSEHOLDERNAME":"王志安",
"RANLIAO":"其他",
"POORLAT":34.5879805059066,
"POORLON":108.819165182114
},
{
"FAMILY_ID":"100000239252567",
"HOUSEHOLDERNAME":"豆成发",
"RANLIAO":"其他",
"POORLAT":34.7662644863129,
"POORLON":108.319780778885
},
{
"FAMILY_ID":"100000136285153",
"HOUSEHOLDERNAME":"程培坤",
"RANLIAO":"其他",
"POORLAT":34.5895548263244,
"POORLON":108.819172805881
},
{
"FAMILY_ID":"100000131290479",
"HOUSEHOLDERNAME":"豆振乾",
"RANLIAO":"其他",
"POORLAT":35.1299788570437,
"POORLON":107.999807376174
},
{
"FAMILY_ID":"100000242269758",
"HOUSEHOLDERNAME":"罗兵团",
"RANLIAO":"其他",
"POORLAT":34.53499,
"POORLON":108.36512
},
{
"FAMILY_ID":"100000144598922",
"HOUSEHOLDERNAME":"杜兴苟",
"RANLIAO":"其他",
"POORLAT":null,
"POORLON":null
},
{
"FAMILY_ID":"100000134627836",
"HOUSEHOLDERNAME":"李英刚",
"RANLIAO":"其他",
"POORLAT":34.5892166724961,
"POORLON":108.819963977486
},
{
"FAMILY_ID":"100000135024579",
"HOUSEHOLDERNAME":"张永发",
"RANLIAO":"其他",
"POORLAT":34.5889342523266,
"POORLON":108.820093974443
},
{
"FAMILY_ID":"100000136297232",
"HOUSEHOLDERNAME":"杨社娃",
"RANLIAO":"其他",
"POORLAT":34.5886165067235,
"POORLON":108.819281388159
},
{
"FAMILY_ID":"100000134037819",
"HOUSEHOLDERNAME":"董付生",
"RANLIAO":"其他",
"POORLAT":34.5893348421799,
"POORLON":108.820139101859
},
{
"FAMILY_ID":"100000134339932",
"HOUSEHOLDERNAME":"袁金安",
"RANLIAO":"其他",
"POORLAT":34.5886189220824,
"POORLON":108.819579932115
},
{
"FAMILY_ID":"100000128593908",
"HOUSEHOLDERNAME":"李建国",
"RANLIAO":"其他",
"POORLAT":34.5914488315582,
"POORLON":108.460580658913
},
{
"FAMILY_ID":"100000247219047",
"HOUSEHOLDERNAME":"王远望",
"RANLIAO":"其他",
"POORLAT":34.4403876662254,
"POORLON":108.491858124733
},
{
"FAMILY_ID":"100000247397229",
"HOUSEHOLDERNAME":"李忠义",
"RANLIAO":"其他",
"POORLAT":34.4526580572128,
"POORLON":108.472343206406
},
{
"FAMILY_ID":"100000240664903",
"HOUSEHOLDERNAME":"贾知礼",
"RANLIAO":"其他",
"POORLAT":34.442383,
"POORLON":108.38502
},
{
"FAMILY_ID":"100000115280955",
"HOUSEHOLDERNAME":"郑超",
"RANLIAO":"其他",
"POORLAT":null,
"POORLON":null
},
{
"FAMILY_ID":"5700000116872379",
"HOUSEHOLDERNAME":"焦飞",
"RANLIAO":"其他",
"POORLAT":34.589260149002,
"POORLON":108.743805837631
},
{
"FAMILY_ID":"100000259913792",
"HOUSEHOLDERNAME":"王瑞咏",
"RANLIAO":"其他",
"POORLAT":null,
"POORLON":null
},
{
"FAMILY_ID":"5700000104899491",
"HOUSEHOLDERNAME":"段亚锋",
"RANLIAO":"其他",
"POORLAT":34.5826229013506,
"POORLON":108.485360709914
},
{
"FAMILY_ID":"100000152817454",
"HOUSEHOLDERNAME":"赵茂茂",
"RANLIAO":"其他",
"POORLAT":35.1741635792439,
"POORLON":107.953056711866
},
{
"FAMILY_ID":"100000146227357",
"HOUSEHOLDERNAME":"赵建成",
"RANLIAO":"其他",
"POORLAT":35.1735319804846,
"POORLON":107.952825137815
},
{
"FAMILY_ID":"100000152832696",
"HOUSEHOLDERNAME":"王战良",
"RANLIAO":"其他",
"POORLAT":35.1628076314926,
"POORLON":107.951835346222
},
{
"FAMILY_ID":"5700000028246272",
"HOUSEHOLDERNAME":"王佩娃",
"RANLIAO":"其他",
"POORLAT":35.1733258244301,
"POORLON":107.949741792371
},
{
"FAMILY_ID":"100000145969143",
"HOUSEHOLDERNAME":"王权民",
"RANLIAO":"其他",
"POORLAT":35.1734777750758,
"POORLON":107.944167883058
},
{
"FAMILY_ID":"5700000105112234",
"HOUSEHOLDERNAME":"曹党团",
"RANLIAO":"其他",
"POORLAT":34.4308947580982,
"POORLON":108.186625401143
},
{
"FAMILY_ID":"100000237647046",
"HOUSEHOLDERNAME":"郑利卷",
"RANLIAO":"其他",
"POORLAT":34.7644459486008,
"POORLON":108.311278176308
},
{
"FAMILY_ID":"5700000119182169",
"HOUSEHOLDERNAME":"杨国望",
"RANLIAO":"其他",
"POORLAT":34.267972946167,
"POORLON":108.237133979797
},
{
"FAMILY_ID":"100000139514189",
"HOUSEHOLDERNAME":"姚黑牛",
"RANLIAO":"其他",
"POORLAT":35.1336673822441,
"POORLON":107.996389872264
},
{
"FAMILY_ID":"5700000109132469",
"HOUSEHOLDERNAME":"齐新有",
"RANLIAO":"其他",
"POORLAT":34.67921,
"POORLON":108.0453
},
{
"FAMILY_ID":"100000260303389",
"HOUSEHOLDERNAME":"郑经阳",
"RANLIAO":"其他",
"POORLAT":34.7639256000519,
"POORLON":108.307694745064
},
{
"FAMILY_ID":"100000133173713",
"HOUSEHOLDERNAME":"袁新全",
"RANLIAO":"其他",
"POORLAT":34.6402416206355,
"POORLON":108.486333974273
},
{
"FAMILY_ID":"100000146056322",
"HOUSEHOLDERNAME":"晏军齐",
"RANLIAO":"其他",
"POORLAT":34.5410553170177,
"POORLON":108.677072414206
},
{
"FAMILY_ID":"100000111054055",
"HOUSEHOLDERNAME":"屈彩风",
"RANLIAO":"其他",
"POORLAT":34.5848520006943,
"POORLON":108.804429153442
},
{
"FAMILY_ID":"100000136282591",
"HOUSEHOLDERNAME":"张平彦",
"RANLIAO":"其他",
"POORLAT":null,
"POORLON":null
},
{
"FAMILY_ID":"100000153516505",
"HOUSEHOLDERNAME":"刘忙计",
"RANLIAO":"其他",
"POORLAT":null,
"POORLON":null
},
{
"FAMILY_ID":"5700000028157827",
"HOUSEHOLDERNAME":"王训涛",
"RANLIAO":"其他",
"POORLAT":35.1734659559158,
"POORLON":107.948960226084
},
{
"FAMILY_ID":"100000125927754",
"HOUSEHOLDERNAME":"马科社",
"RANLIAO":"其他",
"POORLAT":null,
"POORLON":null
},
{
"FAMILY_ID":"100000146339878",
"HOUSEHOLDERNAME":"梁西安",
"RANLIAO":"其他",
"POORLAT":null,
"POORLON":null
},
{
"FAMILY_ID":"100000136309756",
"HOUSEHOLDERNAME":"邹忠年",
"RANLIAO":"其他",
"POORLAT":35.2616997578028,
"POORLON":108.099708011961
},
{
"FAMILY_ID":"5700000032152771",
"HOUSEHOLDERNAME":"邹元子",
"RANLIAO":"其他",
"POORLAT":35.2369232379688,
"POORLON":108.108060226977
},
{
"FAMILY_ID":"5700000108245943",
"HOUSEHOLDERNAME":"郑新权",
"RANLIAO":"其他",
"POORLAT":34.7688769578934,
"POORLON":108.308402848244
},
{
"FAMILY_ID":"100000254756332",
"HOUSEHOLDERNAME":"梁争院",
"RANLIAO":"其他",
"POORLAT":null,
"POORLON":null
},
{
"FAMILY_ID":"100000263065896",
"HOUSEHOLDERNAME":"王峰",
"RANLIAO":"其他",
"POORLAT":34.2161036441803,
"POORLON":108.256698279762
},
{
"FAMILY_ID":"100000152785529",
"HOUSEHOLDERNAME":"王小兵",
"RANLIAO":"其他",
"POORLAT":34.4905343771341,
"POORLON":108.666627510483
},
{
"FAMILY_ID":"100000146574008",
"HOUSEHOLDERNAME":"张桂兰",
"RANLIAO":"其他",
"POORLAT":34.47834361029,
"POORLON":108.682060480509
},
{
"FAMILY_ID":"100000269299529",
"HOUSEHOLDERNAME":"张崇珍",
"RANLIAO":"其他",
"POORLAT":34.6273909558157,
"POORLON":108.555582815619
},
{
"FAMILY_ID":"100000146312979",
"HOUSEHOLDERNAME":"梁晓莉",
"RANLIAO":"其他",
"POORLAT":34.5032159090042,
"POORLON":108.648162603378
},
{
"FAMILY_ID":"5700000007566965",
"HOUSEHOLDERNAME":"杨秀英",
"RANLIAO":"其他",
"POORLAT":null,
"POORLON":null
},
{
"FAMILY_ID":"100000130110329",
"HOUSEHOLDERNAME":"张志团",
"RANLIAO":"其他",
"POORLAT":34.5856064103618,
"POORLON":108.498985643323
},
{
"FAMILY_ID":"100000146752977",
"HOUSEHOLDERNAME":"张刚刚",
"RANLIAO":"其他",
"POORLAT":34.526154,
"POORLON":108.682526
},
{
"FAMILY_ID":"100000251425528",
"HOUSEHOLDERNAME":"王月星",
"RANLIAO":"其他",
"POORLAT":34.52658,
"POORLON":108.68197
},
{
"FAMILY_ID":"100000116828403",
"HOUSEHOLDERNAME":"张耀喜",
"RANLIAO":"其他",
"POORLAT":34.7048642635345,
"POORLON":108.7000477314
},
{
"FAMILY_ID":"100000244282867",
"HOUSEHOLDERNAME":"杨志愿",
"RANLIAO":"其他",
"POORLAT":34.5155369520187,
"POORLON":108.627533669397
},
{
"FAMILY_ID":"5700000104857666",
"HOUSEHOLDERNAME":"张飞跃",
"RANLIAO":"其他",
"POORLAT":34.5818485711111,
"POORLON":108.498236959466
},
{
"FAMILY_ID":"100000231869365",
"HOUSEHOLDERNAME":"邹瑞娟",
"RANLIAO":"其他",
"POORLAT":34.5268673675953,
"POORLON":108.67550545247
},
{
"FAMILY_ID":"5700000326322660",
"HOUSEHOLDERNAME":"岳大平",
"RANLIAO":"其他",
"POORLAT":34.6467272511986,
"POORLON":108.599051753366
},
{
"FAMILY_ID":"100000124539489",
"HOUSEHOLDERNAME":"赵建峰",
"RANLIAO":"其他",
"POORLAT":34.2323201879122,
"POORLON":108.245955464342
},
{
"FAMILY_ID":"100000145849239",
"HOUSEHOLDERNAME":"李恒望",
"RANLIAO":"其他",
"POORLAT":34.524296,
"POORLON":108.67264
},
{
"FAMILY_ID":"5700000113687932",
"HOUSEHOLDERNAME":"党栓鱼",
"RANLIAO":"其他",
"POORLAT":null,
"POORLON":null
},
{
"FAMILY_ID":"5700000105157263",
"HOUSEHOLDERNAME":"寇维畏",
"RANLIAO":"其他",
"POORLAT":null,
"POORLON":null
},
{
"FAMILY_ID":"100000166367119",
"HOUSEHOLDERNAME":"梁应战",
"RANLIAO":"其他",
"POORLAT":null,
"POORLON":null
},
{
"FAMILY_ID":"100000167858064",
"HOUSEHOLDERNAME":"秦保民",
"RANLIAO":"其他",
"POORLAT":null,
"POORLON":null
},
{
"FAMILY_ID":"5700000108919192",
"HOUSEHOLDERNAME":"陈远德",
"RANLIAO":"其他",
"POORLAT":35.0529614993355,
"POORLON":108.554578380868
},
{
"FAMILY_ID":"100000166362082",
"HOUSEHOLDERNAME":"袁稳当",
"RANLIAO":"其他",
"POORLAT":34.9746131896973,
"POORLON":108.33203125
},
{
"FAMILY_ID":"100000258666864",
"HOUSEHOLDERNAME":"王月香",
"RANLIAO":"其他",
"POORLAT":35.0105323791504,
"POORLON":108.415939331055
},
{
"FAMILY_ID":"100000162335232",
"HOUSEHOLDERNAME":"刘战红",
"RANLIAO":"其他",
"POORLAT":35.18709,
"POORLON":108.33842
},
{
"FAMILY_ID":"5700000106070132",
"HOUSEHOLDERNAME":"梁玉新",
"RANLIAO":"其他",
"POORLAT":34.9724807739258,
"POORLON":108.332847595215
},
{
"FAMILY_ID":"100000171858107",
"HOUSEHOLDERNAME":"田学儿",
"RANLIAO":"其他",
"POORLAT":35.0360021668416,
"POORLON":108.222132825738
},
{
"FAMILY_ID":"100000301347874",
"HOUSEHOLDERNAME":"秦狗娃",
"RANLIAO":"其他",
"POORLAT":35.0776,
"POORLON":108.215096
},
{
"FAMILY_ID":"100000187922622",
"HOUSEHOLDERNAME":"朱朝选",
"RANLIAO":"其他",
"POORLAT":35.051422,
"POORLON":108.21013
},
{
"FAMILY_ID":"100000188395089",
"HOUSEHOLDERNAME":"朱安安",
"RANLIAO":"其他",
"POORLAT":35.0538807288361,
"POORLON":108.201528746033
},
{
"FAMILY_ID":"100000203565171",
"HOUSEHOLDERNAME":"杜方义",
"RANLIAO":"其他",
"POORLAT":35.1842327272224,
"POORLON":108.336274353981
},
{
"FAMILY_ID":"100000162505211",
"HOUSEHOLDERNAME":"袁书民",
"RANLIAO":"其他",
"POORLAT":34.9992502023773,
"POORLON":108.362251806221
},
{
"FAMILY_ID":"5700000106810918",
"HOUSEHOLDERNAME":"寇应堂",
"RANLIAO":"其他",
"POORLAT":35.1566919399311,
"POORLON":108.268108948572
},
{
"FAMILY_ID":"100000258023016",
"HOUSEHOLDERNAME":"张世昌",
"RANLIAO":"其他",
"POORLAT":35.1475867742274,
"POORLON":108.293347530178
},
{
"FAMILY_ID":"100000165942004",
"HOUSEHOLDERNAME":"刘方战",
"RANLIAO":"其他",
"POORLAT":35.033596,
"POORLON":108.35764
},
{
"FAMILY_ID":"100000165214002",
"HOUSEHOLDERNAME":"刘建森",
"RANLIAO":"其他",
"POORLAT":35.0336,
"POORLON":108.35763
},
{
"FAMILY_ID":"5700000118467075",
"HOUSEHOLDERNAME":"张康乐",
"RANLIAO":"其他",
"POORLAT":35.181873,
"POORLON":108.299095
},
{
"FAMILY_ID":"100000303765356",
"HOUSEHOLDERNAME":"郑小刚",
"RANLIAO":"其他",
"POORLAT":35.0936300754547,
"POORLON":108.263958930969
},
{
"FAMILY_ID":"5700000125066734",
"HOUSEHOLDERNAME":"张亚莉",
"RANLIAO":"其他",
"POORLAT":35.0479889843861,
"POORLON":108.259520800921
},
{
"FAMILY_ID":"5700000134283286",
"HOUSEHOLDERNAME":"马三兵",
"RANLIAO":"其他",
"POORLAT":35.1766,
"POORLON":108.2557
},
{
"FAMILY_ID":"100000193142198",
"HOUSEHOLDERNAME":"蒙治丙",
"RANLIAO":"其他",
"POORLAT":35.0330094490738,
"POORLON":108.234562449074
},
{
"FAMILY_ID":"100000301463615",
"HOUSEHOLDERNAME":"李爱芹",
"RANLIAO":"其他",
"POORLAT":35.1474393606186,
"POORLON":108.293381810188
},
{
"FAMILY_ID":"100000170129343",
"HOUSEHOLDERNAME":"赵喜平",
"RANLIAO":"其他",
"POORLAT":35.056213,
"POORLON":108.20326
},
{
"FAMILY_ID":"100000213854673",
"HOUSEHOLDERNAME":"张爱民",
"RANLIAO":"其他",
"POORLAT":34.973003,
"POORLON":108.267166
},
{
"FAMILY_ID":"5700000125015348",
"HOUSEHOLDERNAME":"张西娃",
"RANLIAO":"其他",
"POORLAT":34.973003,
"POORLON":108.267166
},
{
"FAMILY_ID":"100000183541693",
"HOUSEHOLDERNAME":"席中坤",
"RANLIAO":"其他",
"POORLAT":35.014706,
"POORLON":108.23453
},
{
"FAMILY_ID":"5700000129397183",
"HOUSEHOLDERNAME":"任群仙",
"RANLIAO":"其他",
"POORLAT":35.2347878565976,
"POORLON":108.333101909931
},
{
"FAMILY_ID":"100000182785229",
"HOUSEHOLDERNAME":"李双存",
"RANLIAO":"其他",
"POORLAT":35.0518060239396,
"POORLON":108.249751961011
},
{
"FAMILY_ID":"5700000103800588",
"HOUSEHOLDERNAME":"代常青",
"RANLIAO":"其他",
"POORLAT":35.2248687744141,
"POORLON":107.767791748047
},
{
"FAMILY_ID":"3117486015",
"HOUSEHOLDERNAME":"魏爱爱",
"RANLIAO":"其他",
"POORLAT":34.8097913742065,
"POORLON":108.046222281456
},
{
"FAMILY_ID":"5700000103858695",
"HOUSEHOLDERNAME":"左林",
"RANLIAO":"其他",
"POORLAT":34.8311165508652,
"POORLON":108.214628013153
},
{
"FAMILY_ID":"5700000108629814",
"HOUSEHOLDERNAME":"张高峰",
"RANLIAO":"其他",
"POORLAT":34.7127982030944,
"POORLON":108.107144934219
},
{
"FAMILY_ID":"3117462576",
"HOUSEHOLDERNAME":"李宏运",
"RANLIAO":"其他",
"POORLAT":34.7772658388194,
"POORLON":108.031909683045
},
{
"FAMILY_ID":"3117423319",
"HOUSEHOLDERNAME":"曹昌彦",
"RANLIAO":"其他",
"POORLAT":34.7779981838712,
"POORLON":108.031384034375
},
{
"FAMILY_ID":"3117483763",
"HOUSEHOLDERNAME":"崔文成",
"RANLIAO":"其他",
"POORLAT":35.230812,
"POORLON":107.80249
},
{
"FAMILY_ID":"3117425538",
"HOUSEHOLDERNAME":"王应前",
"RANLIAO":"其他",
"POORLAT":34.7774369716644,
"POORLON":108.031841874123
},
{
"FAMILY_ID":"5700000022398357",
"HOUSEHOLDERNAME":"林志成",
"RANLIAO":"其他",
"POORLAT":34.7780646439446,
"POORLON":108.062521371374
},
{
"FAMILY_ID":"5700000113196683",
"HOUSEHOLDERNAME":"张健",
"RANLIAO":"其他",
"POORLAT":34.7709170867737,
"POORLON":108.124322463332
},
{
"FAMILY_ID":"3117438472",
"HOUSEHOLDERNAME":"李致荣",
"RANLIAO":"其他",
"POORLAT":34.6939560759123,
"POORLON":108.146097872824
},
{
"FAMILY_ID":"5700000104498782",
"HOUSEHOLDERNAME":"李苏勤",
"RANLIAO":"其他",
"POORLAT":34.6925225138664,
"POORLON":108.146483254433
},
{
"FAMILY_ID":"3117443941",
"HOUSEHOLDERNAME":"尚岁龙",
"RANLIAO":"其他",
"POORLAT":34.692627120018,
"POORLON":108.133399438858
},
{
"FAMILY_ID":"100000150396879",
"HOUSEHOLDERNAME":"穆书勤",
"RANLIAO":"其他",
"POORLAT":34.6916293382644,
"POORLON":108.133034658432
},
{
"FAMILY_ID":"5700000104933938",
"HOUSEHOLDERNAME":"谢春林",
"RANLIAO":"其他",
"POORLAT":34.789005,
"POORLON":107.99732
},
{
"FAMILY_ID":"5700000107690705",
"HOUSEHOLDERNAME":"孙建昶",
"RANLIAO":"其他",
"POORLAT":34.7957132968305,
"POORLON":108.165016223215
},
{
"FAMILY_ID":"100000270813590",
"HOUSEHOLDERNAME":"陈小卷",
"RANLIAO":"其他",
"POORLAT":35.19237,
"POORLON":107.81914
},
{
"FAMILY_ID":"5700000113693998",
"HOUSEHOLDERNAME":"成拴勤",
"RANLIAO":"其他",
"POORLAT":35.0572195053101,
"POORLON":107.801375865936
},
{
"FAMILY_ID":"5700000035297055",
"HOUSEHOLDERNAME":"槐余前",
"RANLIAO":"其他",
"POORLAT":34.82331844023,
"POORLON":107.984168689935
},
{
"FAMILY_ID":"100000156252471",
"HOUSEHOLDERNAME":"翟生金",
"RANLIAO":"其他",
"POORLAT":34.7494255781174,
"POORLON":108.149455142021
},
{
"FAMILY_ID":"100000188333578",
"HOUSEHOLDERNAME":"马振江",
"RANLIAO":"其他",
"POORLAT":34.9275770417415,
"POORLON":108.152581508085
},
{
"FAMILY_ID":"100000138098134",
"HOUSEHOLDERNAME":"张小军",
"RANLIAO":"其他",
"POORLAT":34.8705567166046,
"POORLON":108.209627727877
},
{
"FAMILY_ID":"5700000106213748",
"HOUSEHOLDERNAME":"张乃贤",
"RANLIAO":"其他",
"POORLAT":34.54163644534,
"POORLON":108.022665377772
},
{
"FAMILY_ID":"100000138272827",
"HOUSEHOLDERNAME":"姜拴牢",
"RANLIAO":"其他",
"POORLAT":35.1468687009241,
"POORLON":107.856108700909
},
{
"FAMILY_ID":"5700000110053824",
"HOUSEHOLDERNAME":"张军锋",
"RANLIAO":"其他",
"POORLAT":34.6734186512359,
"POORLON":108.203259681116
},
{
"FAMILY_ID":"5700000111254795",
"HOUSEHOLDERNAME":"董友民",
"RANLIAO":"其他",
"POORLAT":34.95008,
"POORLON":108.13639
},
{
"FAMILY_ID":"5700000103451649",
"HOUSEHOLDERNAME":"张有让",
"RANLIAO":"其他",
"POORLAT":34.8645894081743,
"POORLON":108.132212864105
},
{
"FAMILY_ID":"5700000115869336",
"HOUSEHOLDERNAME":"武朝瑞",
"RANLIAO":"其他",
"POORLAT":35.2908757724996,
"POORLON":107.772780825138
},
{
"FAMILY_ID":"5700000113233517",
"HOUSEHOLDERNAME":"杨智德",
"RANLIAO":"其他",
"POORLAT":35.2855203272623,
"POORLON":107.789381038093
},
{
"FAMILY_ID":"5700000110161402",
"HOUSEHOLDERNAME":"李小霞",
"RANLIAO":"其他",
"POORLAT":35.0351715087891,
"POORLON":107.82608795166
},